{
"type": "FeatureCollection",
"name": "grocerypoint",
"crs": { "type": "name", "properties": { "name": "urn:ogc:def:crs:OGC:1.3:CRS84" } },
"features": [
{ "type": "Feature", "id": 1, "properties": { "OBJECTID": 1, "FID": 0, "id": 1010003522, "retailer": "Sainsburys", "store_name": "Sainsburys Cockfosters Heddon Court Parade Local", "postcode": "EN4 0DB", "long_wgs": -0.147979337, "lat_wgs": 51.64815075, "size_band": "< 3,013 ft2 (280m2)", "points": "POINT (528231.9379664042 195996.6400822234)" }, "geometry": { "type": "Point", "coordinates": [ -7.557214874496855, 49.767269485776467 ] } },
{ "type": "Feature", "id": 2, "properties": { "OBJECTID": 2, "FID": 1, "id": 1010000497, "retailer": "Aldi", "store_name": "Aldi Feltham London", "postcode": "TW13 4DD", "long_wgs": -0.41201161, "lat_wgs": 51.44392087, "size_band": "3,013 < 15,069 ft2 (280 < 1,400 m2)", "points": "POINT (510458.5579752222 172854.5896159475)" }, "geometry": { "type": "Point", "coordinates": [ -7.557218313530981, 49.767267482261929 ] } },
{ "type": "Feature", "id": 3, "properties": { "OBJECTID": 3, "FID": 2, "id": 1010000647, "retailer": "Asda", "store_name": "Asda Leyton Mills Superstore", "postcode": "E10 5NH", "long_wgs": -0.009061154, "lat_wgs": 51.55638664, "size_band": "30,138 ft2 > (2,800 m2)", "points": "POINT (538120.3479672489 186044.9800327037)" }, "geometry": { "type": "Point", "coordinates": [ -7.55721285927124, 49.767268757324175 ] } },
{ "type": "Feature", "id": 4, "properties": { "OBJECTID": 4, "FID": 3, "id": 1010000796, "retailer": "Asda", "store_name": "Asda Old Kent Road Superstore", "postcode": "SE1 5AG", "long_wgs": -0.070006199, "lat_wgs": 51.48468806, "size_band": "30,138 ft2 > (2,800 m2)", "points": "POINT (534105.9380191329 177958.6501799082)" }, "geometry": { "type": "Point", "coordinates": [ -7.557213628725953, 49.767268074915144 ] } },
{ "type": "Feature", "id": 5, "properties": { "OBJECTID": 5, "FID": 4, "id": 1010015835, "retailer": "Budgens", "store_name": "Budgens Coulsdon", "postcode": "CR5 3BR", "long_wgs": -0.149313871, "lat_wgs": 51.31884644, "size_band": "< 3,013 ft2 (280m2)", "points": "POINT (529065.2817651968 159374.5693661401)" }, "geometry": { "type": "Point", "coordinates": [ -7.557214554390418, 49.767266537075024 ] } },
{ "type": "Feature", "id": 6, "properties": { "OBJECTID": 6, "FID": 5, "id": 1010000817, "retailer": "Asda", "store_name": "Asda Clapham Junction Superstore", "postcode": "SW11 1JG", "long_wgs": -0.164897267, "lat_wgs": 51.46551886, "size_band": "30,138 ft2 > (2,800 m2)", "points": "POINT (527571.1079469094 175657.5605103069)" }, "geometry": { "type": "Point", "coordinates": [ -7.557214920602366, 49.767267839934725 ] } },
{ "type": "Feature", "id": 7, "properties": { "OBJECTID": 7, "FID": 6, "id": 1010001611, "retailer": "Marks and Spencer", "store_name": "M&S Richmond", "postcode": "TW9 1JY", "long_wgs": -0.305483159, "lat_wgs": 51.45992296, "size_band": "3,013 < 15,069 ft2 (280 < 1,400 m2)", "points": "POINT (517820.4379917902 174799.949597439)" }, "geometry": { "type": "Point", "coordinates": [ -7.557216858048794, 49.767267696310164 ] } },
{ "type": "Feature", "id": 8, "properties": { "OBJECTID": 8, "FID": 7, "id": 1010000992, "retailer": "Asda", "store_name": "Asda Ponders End Supermarket", "postcode": "EN3 4EF", "long_wgs": -0.045908721, "lat_wgs": 51.64151541, "size_band": "3,013 < 15,069 ft2 (280 < 1,400 m2)", "points": "POINT (535312.997968455 195442.7299927879)" }, "geometry": { "type": "Point", "coordinates": [ -7.557213456623707, 49.767269494587481 ] } },
{ "type": "Feature", "id": 9, "properties": { "OBJECTID": 9, "FID": 8, "id": 1010001512, "retailer": "Marks and Spencer", "store_name": "M&S Brent Cross", "postcode": "NW4 3FE", "long_wgs": -0.225068128, "lat_wgs": 51.57592857, "size_band": "3,013 < 15,069 ft2 (280 < 1,400 m2)", "points": "POINT (523093.867975905 187832.659760631)" }, "geometry": { "type": "Point", "coordinates": [ -7.557215864570024, 49.767268788252053 ] } },
{ "type": "Feature", "id": 10, "properties": { "OBJECTID": 10, "FID": 9, "id": 1010001612, "retailer": "Marks and Spencer", "store_name": "M&S Kew", "postcode": "TW9 4AD", "long_wgs": -0.278574127, "lat_wgs": 51.47761894, "size_band": "3,013 < 15,069 ft2 (280 < 1,400 m2)", "points": "POINT (519643.5179793203 176811.4196458665)" }, "geometry": { "type": "Point", "coordinates": [ -7.557216503060478, 49.767267872711621 ] } },
{ "type": "Feature", "id": 11, "properties": { "OBJECTID": 11, "FID": 10, "id": 1010003762, "retailer": "Sainsburys", "store_name": "Sainsburys Hornchurch Elm Park Avenue Local", "postcode": "RM12 4RX", "long_wgs": 0.198425609, "lat_wgs": 51.55105368, "size_band": "< 3,013 ft2 (280m2)", "points": "POINT (552520.867958547 185863.9204306719)" }, "geometry": { "type": "Point", "coordinates": [ -7.557209985924366, 49.767268846964782 ] } },
{ "type": "Feature", "id": 12, "properties": { "OBJECTID": 12, "FID": 11, "id": 1010001614, "retailer": "Marks and Spencer", "store_name": "M&S White City", "postcode": "W12 7GA", "long_wgs": -0.22036265, "lat_wgs": 51.50845981, "size_band": "15,069 < 30,138 ft2 (1,400 < 2,800 m2)", "points": "POINT (523602.4379649498 180337.7005636898)" }, "geometry": { "type": "Point", "coordinates": [ -7.557215730314166, 49.767268187128984 ] } },
{ "type": "Feature", "id": 13, "properties": { "OBJECTID": 13, "FID": 12, "id": 1010001655, "retailer": "Marks and Spencer", "store_name": "M&S Downham Bromley BP", "postcode": "BR1 4PJ", "long_wgs": -0.006110252, "lat_wgs": 51.42624855, "size_band": "< 3,013 ft2 (280m2)", "points": "POINT (538719.0880111706 171579.0203306056)" }, "geometry": { "type": "Point", "coordinates": [ -7.557212685522291, 49.76726759372454 ] } },
{ "type": "Feature", "id": 14, "properties": { "OBJECTID": 14, "FID": 13, "id": 1010001710, "retailer": "Marks and Spencer", "store_name": "M&S Greengate Ilford BP", "postcode": "IG2 7RH", "long_wgs": 0.085486856, "lat_wgs": 51.57418557, "size_band": "< 3,013 ft2 (280m2)", "points": "POINT (544617.8879978819 188206.9006398609)" }, "geometry": { "type": "Point", "coordinates": [ -7.557211571485791, 49.767268979506021 ] } },
{ "type": "Feature", "id": 15, "properties": { "OBJECTID": 15, "FID": 14, "id": 1010001744, "retailer": "Marks and Spencer", "store_name": "M&S Finchley Ln BP", "postcode": "NW4 1DL", "long_wgs": -0.220627069, "lat_wgs": 51.58935951, "size_band": "< 3,013 ft2 (280m2)", "points": "POINT (523365.247983738 189333.7399739834)" }, "geometry": { "type": "Point", "coordinates": [ -7.557215817515793, 49.76726891113239 ] } },
{ "type": "Feature", "id": 16, "properties": { "OBJECTID": 16, "FID": 15, "id": 1010001795, "retailer": "Marks and Spencer", "store_name": "M&S Wandsworth BP", "postcode": "SW18 1EW", "long_wgs": -0.188253325, "lat_wgs": 51.46203087, "size_band": "< 3,013 ft2 (280m2)", "points": "POINT (525958.4080008663 175229.2902004971)" }, "geometry": { "type": "Point", "coordinates": [ -7.557215239032296, 49.767267793109596 ] } },
{ "type": "Feature", "id": 17, "properties": { "OBJECTID": 17, "FID": 16, "id": 1010001805, "retailer": "Marks and Spencer", "store_name": "M&S Hillingdon BP", "postcode": "UB10 0LQ", "long_wgs": -0.451934004, "lat_wgs": 51.53279921, "size_band": "< 3,013 ft2 (280m2)", "points": "POINT (507475.207961656 182679.1306576915)" }, "geometry": { "type": "Point", "coordinates": [ -7.557218956246971, 49.767268251547257 ] } },
{ "type": "Feature", "id": 18, "properties": { "OBJECTID": 18, "FID": 17, "id": 1010001806, "retailer": "Marks and Spencer", "store_name": "M&S Northolt Pk BP", "postcode": "UB5 4NP", "long_wgs": -0.360985275, "lat_wgs": 51.55630921, "size_band": "< 3,013 ft2 (280m2)", "points": "POINT (513724.7379511415 185430.9898787069)" }, "geometry": { "type": "Point", "coordinates": [ -7.557217724068084, 49.767268522360737 ] } },
{ "type": "Feature", "id": 19, "properties": { "OBJECTID": 19, "FID": 18, "id": 1010001808, "retailer": "Marks and Spencer", "store_name": "M&S Shepherds Bush BP", "postcode": "W12 8PP", "long_wgs": -0.221654123, "lat_wgs": 51.50342223, "size_band": "< 3,013 ft2 (280m2)", "points": "POINT (523526.427963898 179775.3196482429)" }, "geometry": { "type": "Point", "coordinates": [ -7.557215743147924, 49.76726814150539 ] } },
{ "type": "Feature", "id": 20, "properties": { "OBJECTID": 20, "FID": 19, "id": 1010001943, "retailer": "Marks and Spencer", "store_name": "M&S Liverpool St Arcade SF", "postcode": "EC2M 7QH", "long_wgs": -0.082595624, "lat_wgs": 51.51725309, "size_band": "< 3,013 ft2 (280m2)", "points": "POINT (533136.9979734903 181557.0004843132)" }, "geometry": { "type": "Point", "coordinates": [ -7.55721383623312, 49.767268357470968 ] } },
{ "type": "Feature", "id": 21, "properties": { "OBJECTID": 21, "FID": 20, "id": 1010001949, "retailer": "Marks and Spencer", "store_name": "M&S Enfield A10 SF", "postcode": "EN1 3RR", "long_wgs": -0.057023412, "lat_wgs": 51.65445625, "size_band": "3,013 < 15,069 ft2 (280 < 1,400 m2)", "points": "POINT (534505.6879588499 196861.3000566388)" }, "geometry": { "type": "Point", "coordinates": [ -7.557213623277587, 49.767269602684941 ] } },
{ "type": "Feature", "id": 22, "properties": { "OBJECTID": 22, "FID": 21, "id": 1010015227, "retailer": "Tesco", "store_name": "Tesco Blackfriars Circus Express", "postcode": "SE1 8EQ", "long_wgs": -0.104318515, "lat_wgs": 51.50024289, "size_band": "< 3,013 ft2 (280m2)", "points": "POINT (531678.8612673238 179626.1470340458)" }, "geometry": { "type": "Point", "coordinates": [ -7.5572141186902, 49.767268190860122 ] } },
{ "type": "Feature", "id": 23, "properties": { "OBJECTID": 23, "FID": 22, "id": 1010002042, "retailer": "Marks and Spencer", "store_name": "M&S Greenwich SF", "postcode": "SE10 9EJ", "long_wgs": -0.010393268, "lat_wgs": 51.48201621, "size_band": "< 3,013 ft2 (280m2)", "points": "POINT (538252.8760817484 177772.33455654)" }, "geometry": { "type": "Point", "coordinates": [ -7.557212802238092, 49.767268090377215 ] } },
{ "type": "Feature", "id": 24, "properties": { "OBJECTID": 24, "FID": 23, "id": 1010002093, "retailer": "Marks and Spencer", "store_name": "M&S Liverpool St Rail SF", "postcode": "EC2M 7PY", "long_wgs": -0.081211517, "lat_wgs": 51.51922815, "size_band": "< 3,013 ft2 (280m2)", "points": "POINT (533227.2679782739 181779.1500336084)" }, "geometry": { "type": "Point", "coordinates": [ -7.557213818937378, 49.767268376305587 ] } },
{ "type": "Feature", "id": 25, "properties": { "OBJECTID": 25, "FID": 24, "id": 1010002094, "retailer": "Marks and Spencer", "store_name": "M&S Cannon St Rail SF", "postcode": "EC4N 6AP", "long_wgs": -0.090255799, "lat_wgs": 51.51137715, "size_band": "< 3,013 ft2 (280m2)", "points": "POINT (532622.588000583 180889.6806884321)" }, "geometry": { "type": "Point", "coordinates": [ -7.5572139353162, 49.767268300496639 ] } },
{ "type": "Feature", "id": 26, "properties": { "OBJECTID": 26, "FID": 25, "id": 1010000649, "retailer": "Asda", "store_name": "Asda Beckton Superstore", "postcode": "E6 4JP", "long_wgs": 0.057779694, "lat_wgs": 51.51509602, "size_band": "30,138 ft2 > (2,800 m2)", "points": "POINT (542882.868009524 181581.6696878105)" }, "geometry": { "type": "Point", "coordinates": [ -7.557211893645661, 49.767268432033411 ] } },
{ "type": "Feature", "id": 27, "properties": { "OBJECTID": 27, "FID": 26, "id": 1010002109, "retailer": "Marks and Spencer", "store_name": "M&S St Pancras Main Rail SF", "postcode": "N1C 4QL", "long_wgs": -0.12594515, "lat_wgs": 51.53100896, "size_band": "3,013 < 15,069 ft2 (280 < 1,400 m2)", "points": "POINT (530090.2280171077 183008.7897534084)" }, "geometry": { "type": "Point", "coordinates": [ -7.557214448838707, 49.767268452213152 ] } },
{ "type": "Feature", "id": 28, "properties": { "OBJECTID": 28, "FID": 27, "id": 1010002112, "retailer": "Marks and Spencer", "store_name": "M&S Baker Street Station SF", "postcode": "NW1 5LD", "long_wgs": -0.156795727, "lat_wgs": 51.522674, "size_band": "< 3,013 ft2 (280m2)", "points": "POINT (527973.7979944003 182027.5502072612)" }, "geometry": { "type": "Point", "coordinates": [ -7.557214867378361, 49.767268357365509 ] } },
{ "type": "Feature", "id": 29, "properties": { "OBJECTID": 29, "FID": 28, "id": 1010002124, "retailer": "Marks and Spencer", "store_name": "M&S London Bridge Rail SF", "postcode": "SE1 9SP", "long_wgs": -0.085502936, "lat_wgs": 51.50441782, "size_band": "< 3,013 ft2 (280m2)", "points": "POINT (532972.6279970767 180124.4004305206)" }, "geometry": { "type": "Point", "coordinates": [ -7.557213863172242, 49.767268240959162 ] } },
{ "type": "Feature", "id": 30, "properties": { "OBJECTID": 30, "FID": 29, "id": 1010002128, "retailer": "Marks and Spencer", "store_name": "M&S Victoria Rail SF", "postcode": "SW1V 1JY", "long_wgs": -0.144521358, "lat_wgs": 51.49568137, "size_band": "< 3,013 ft2 (280m2)", "points": "POINT (528901.3979460276 179047.3904103092)" }, "geometry": { "type": "Point", "coordinates": [ -7.557214669663939, 49.767268123845255 ] } },
{ "type": "Feature", "id": 31, "properties": { "OBJECTID": 31, "FID": 30, "id": 1010002129, "retailer": "Marks and Spencer", "store_name": "M&S Heathrow T3 Airport SF", "postcode": "TW6 1BJ", "long_wgs": -0.457709675, "lat_wgs": 51.47004584, "size_band": "< 3,013 ft2 (280m2)", "points": "POINT (507221.6380167811 175692.0198314075)" }, "geometry": { "type": "Point", "coordinates": [ -7.557218971934053, 49.767267685515648 ] } },
{ "type": "Feature", "id": 32, "properties": { "OBJECTID": 32, "FID": 31, "id": 1010002899, "retailer": "Sainsburys", "store_name": "Sainsburys Crayford", "postcode": "DA1 4HW", "long_wgs": 0.178949245, "lat_wgs": 51.44915928, "size_band": "30,138 ft2 > (2,800 m2)", "points": "POINT (551507.9979953602 174493.0005691402)" }, "geometry": { "type": "Point", "coordinates": [ -7.55721015081395, 49.767267921806649 ] } },
{ "type": "Feature", "id": 33, "properties": { "OBJECTID": 33, "FID": 32, "id": 1010002239, "retailer": "Morrisons", "store_name": "Morrisons Sidcup London", "postcode": "DA14 6BF", "long_wgs": 0.102964889, "lat_wgs": 51.42492217, "size_band": "15,069 < 30,138 ft2 (1,400 < 2,800 m2)", "points": "POINT (546305.8879608243 171643.5304758528)" }, "geometry": { "type": "Point", "coordinates": [ -7.557211176345245, 49.767267654634978 ] } },
{ "type": "Feature", "id": 34, "properties": { "OBJECTID": 34, "FID": 33, "id": 1010002283, "retailer": "Morrisons", "store_name": "Morrisons Southbury London", "postcode": "EN1 1TW", "long_wgs": -0.059323089, "lat_wgs": 51.64802226, "size_band": "30,138 ft2 > (2,800 m2)", "points": "POINT (534365.6279759598 196141.5799553784)" }, "geometry": { "type": "Point", "coordinates": [ -7.557213648494769, 49.767269543863819 ] } },
{ "type": "Feature", "id": 35, "properties": { "OBJECTID": 35, "FID": 34, "id": 1010002533, "retailer": "Morrisons", "store_name": "Morrisons Thamesmead London", "postcode": "SE28 8RD", "long_wgs": 0.105800796, "lat_wgs": 51.50779873, "size_band": "30,138 ft2 > (2,800 m2)", "points": "POINT (546237.9979732739 180865.0006329014)" }, "geometry": { "type": "Point", "coordinates": [ -7.557211222755798, 49.767268398603456 ] } },
{ "type": "Feature", "id": 36, "properties": { "OBJECTID": 36, "FID": 35, "id": 1010002566, "retailer": "Morrisons", "store_name": "Morrisons Wimbledon London", "postcode": "SW19 1QB", "long_wgs": -0.204495047, "lat_wgs": 51.4195366, "size_band": "15,069 < 30,138 ft2 (1,400 < 2,800 m2)", "points": "POINT (524945.9979559187 170476.0002300728)" }, "geometry": { "type": "Point", "coordinates": [ -7.557215420677997, 49.767267401817946 ] } },
{ "type": "Feature", "id": 37, "properties": { "OBJECTID": 37, "FID": 36, "id": 1010002598, "retailer": "Morrisons", "store_name": "Morrisons Brentford London", "postcode": "TW8 0JG", "long_wgs": -0.305712193, "lat_wgs": 51.48383747, "size_band": "15,069 < 30,138 ft2 (1,400 < 2,800 m2)", "points": "POINT (517742.9980138346 177458.9997248019)" }, "geometry": { "type": "Point", "coordinates": [ -7.557216885349701, 49.767267910125874 ] } },
{ "type": "Feature", "id": 38, "properties": { "OBJECTID": 38, "FID": 37, "id": 1010002877, "retailer": "Sainsburys", "store_name": "Sainsburys Purley Way", "postcode": "CR0 4XT", "long_wgs": -0.117781701, "lat_wgs": 51.3757935, "size_band": "30,138 ft2 > (2,800 m2)", "points": "POINT (531099.9980210467 165762.999630363)" }, "geometry": { "type": "Point", "coordinates": [ -7.557214177555834, 49.767267068275657 ] } },
{ "type": "Feature", "id": 39, "properties": { "OBJECTID": 39, "FID": 38, "id": 1010002925, "retailer": "Sainsburys", "store_name": "Sainsburys Stratford", "postcode": "E15 1XE", "long_wgs": -0.001072733, "lat_wgs": 51.54176846, "size_band": "3,013 < 15,069 ft2 (280 < 1,400 m2)", "points": "POINT (538718.5280089141 184434.5105397262)" }, "geometry": { "type": "Point", "coordinates": [ -7.557212733716359, 49.767268631947218 ] } },
{ "type": "Feature", "id": 40, "properties": { "OBJECTID": 40, "FID": 39, "id": 1010002928, "retailer": "Sainsburys", "store_name": "Sainsburys South Woodford", "postcode": "E18 1AY", "long_wgs": 0.024038483, "lat_wgs": 51.59350619, "size_band": "15,069 < 30,138 ft2 (1,400 < 2,800 m2)", "points": "POINT (540300.5279468679 190235.7403872963)" }, "geometry": { "type": "Point", "coordinates": [ -7.557212439893258, 49.767269111447391 ] } },
{ "type": "Feature", "id": 41, "properties": { "OBJECTID": 41, "FID": 40, "id": 1010002932, "retailer": "Sainsburys", "store_name": "Sainsburys Beckton", "postcode": "E6 6JF", "long_wgs": 0.065908501, "lat_wgs": 51.52142187, "size_band": "30,138 ft2 > (2,800 m2)", "points": "POINT (543426.9979535243 182301.0002799243)" }, "geometry": { "type": "Point", "coordinates": [ -7.557211788165534, 49.767268493816168 ] } },
{ "type": "Feature", "id": 42, "properties": { "OBJECTID": 42, "FID": 41, "id": 1010002943, "retailer": "Sainsburys", "store_name": "Sainsburys Enfield", "postcode": "EN1 1TH", "long_wgs": -0.057718554, "lat_wgs": 51.65200005, "size_band": "30,138 ft2 > (2,800 m2)", "points": "POINT (534464.867973136 196586.879752114)" }, "geometry": { "type": "Point", "coordinates": [ -7.557213630488156, 49.767269580735075 ] } },
{ "type": "Feature", "id": 43, "properties": { "OBJECTID": 43, "FID": 42, "id": 1010001990, "retailer": "Marks and Spencer", "store_name": "M&S Surbiton SF", "postcode": "KT6 4NS", "long_wgs": -0.305427563, "lat_wgs": 51.39253554, "size_band": "< 3,013 ft2 (280m2)", "points": "POINT (517997.5979562467 167306.2603610556)" }, "geometry": { "type": "Point", "coordinates": [ -7.557216787470989, 49.767267093023442 ] } },
{ "type": "Feature", "id": 44, "properties": { "OBJECTID": 44, "FID": 43, "id": 1010002989, "retailer": "Sainsburys", "store_name": "Sainsburys Alperton", "postcode": "HA0 1PF", "long_wgs": -0.303369751, "lat_wgs": 51.53878272, "size_band": "30,138 ft2 > (2,800 m2)", "points": "POINT (517763.9980060891 183573.0002866591)" }, "geometry": { "type": "Point", "coordinates": [ -7.557216908645299, 49.767268404072311 ] } },
{ "type": "Feature", "id": 45, "properties": { "OBJECTID": 45, "FID": 44, "id": 1010003029, "retailer": "Sainsburys", "store_name": "Sainsburys Kingston", "postcode": "KT1 1BU", "long_wgs": -0.303405819, "lat_wgs": 51.40971132, "size_band": "3,013 < 15,069 ft2 (280 < 1,400 m2)", "points": "POINT (518094.0456726591 169219.5281029152)" }, "geometry": { "type": "Point", "coordinates": [ -7.557216777487771, 49.767267248324828 ] } },
{ "type": "Feature", "id": 46, "properties": { "OBJECTID": 46, "FID": 45, "id": 1010003035, "retailer": "Sainsburys", "store_name": "Sainsburys Surbiton", "postcode": "KT6 4NG", "long_wgs": -0.30773154, "lat_wgs": 51.3914874, "size_band": "15,069 < 30,138 ft2 (1,400 < 2,800 m2)", "points": "POINT (517839.9979921744 167186.0006151279)" }, "geometry": { "type": "Point", "coordinates": [ -7.557216818232034, 49.767267082542183 ] } },
{ "type": "Feature", "id": 47, "properties": { "OBJECTID": 47, "FID": 46, "id": 1010003876, "retailer": "Sainsburys", "store_name": "Sainsburys Brixton Hill Local", "postcode": "SW2 1HP", "long_wgs": -0.124521551, "lat_wgs": 51.44695498, "size_band": "< 3,013 ft2 (280m2)", "points": "POINT (530428.4279690803 173664.2602138376)" }, "geometry": { "type": "Point", "coordinates": [ -7.557214343149046, 49.767267700295363 ] } },
{ "type": "Feature", "id": 48, "properties": { "OBJECTID": 48, "FID": 47, "id": 1010003126, "retailer": "Sainsburys", "store_name": "Sainsburys Golders Grn", "postcode": "NW11 7RX", "long_wgs": -0.194598804, "lat_wgs": 51.57073172, "size_band": "3,013 < 15,069 ft2 (280 < 1,400 m2)", "points": "POINT (525219.4080165573 187306.4296253739)" }, "geometry": { "type": "Point", "coordinates": [ -7.557215439081076, 49.767268761917528 ] } },
{ "type": "Feature", "id": 49, "properties": { "OBJECTID": 49, "FID": 48, "id": 1010003189, "retailer": "Sainsburys", "store_name": "Sainsburys Romford", "postcode": "RM1 1AU", "long_wgs": 0.179965448, "lat_wgs": 51.57491518, "size_band": "30,138 ft2 > (2,800 m2)", "points": "POINT (551161.9979589006 188479.000258496)" }, "geometry": { "type": "Point", "coordinates": [ -7.557210266144743, 49.767269048611602 ] } },
{ "type": "Feature", "id": 50, "properties": { "OBJECTID": 50, "FID": 49, "id": 1010000997, "retailer": "Asda", "store_name": "Asda South Harrow Supermarket", "postcode": "HA2 8JN", "long_wgs": -0.360880583, "lat_wgs": 51.55776485, "size_band": "3,013 < 15,069 ft2 (280 < 1,400 m2)", "points": "POINT (513728.3679812158 185593.0304496899)" }, "geometry": { "type": "Point", "coordinates": [ -7.55721772412331, 49.767268534959783 ] } },
{ "type": "Feature", "id": 51, "properties": { "OBJECTID": 51, "FID": 50, "id": 1010002990, "retailer": "Sainsburys", "store_name": "Sainsburys South Harrow", "postcode": "HA2 8EQ", "long_wgs": -0.356790174, "lat_wgs": 51.5622916, "size_band": "3,013 < 15,069 ft2 (280 < 1,400 m2)", "points": "POINT (514000.6079653408 186102.8006044515)" }, "geometry": { "type": "Point", "coordinates": [ -7.557217672180843, 49.767268578864545 ] } },
{ "type": "Feature", "id": 52, "properties": { "OBJECTID": 52, "FID": 51, "id": 1010003209, "retailer": "Sainsburys", "store_name": "Sainsburys Dulwich", "postcode": "SE22 8BB", "long_wgs": -0.085112871, "lat_wgs": 51.46202567, "size_band": "30,138 ft2 > (2,800 m2)", "points": "POINT (533122.9979622026 175411.0000435316)" }, "geometry": { "type": "Point", "coordinates": [ -7.557213814114311, 49.767267861667655 ] } },
{ "type": "Feature", "id": 53, "properties": { "OBJECTID": 53, "FID": 52, "id": 1010003268, "retailer": "Sainsburys", "store_name": "Sainsburys Wandsworth", "postcode": "SW18 4AD", "long_wgs": -0.191628546, "lat_wgs": 51.45436478, "size_band": "30,138 ft2 > (2,800 m2)", "points": "POINT (525744.9980044987 174370.9997296552)" }, "geometry": { "type": "Point", "coordinates": [ -7.557215278117649, 49.76726772191963 ] } },
{ "type": "Feature", "id": 54, "properties": { "OBJECTID": 54, "FID": 53, "id": 1010003273, "retailer": "Sainsburys", "store_name": "Sainsburys Fulham Wharf Superstore", "postcode": "SW6 2GD", "long_wgs": -0.187237776, "lat_wgs": 51.46748884, "size_band": "30,138 ft2 > (2,800 m2)", "points": "POINT (526013.9290662241 175837.9813172598)" }, "geometry": { "type": "Point", "coordinates": [ -7.557215230858088, 49.76726784300962 ] } },
{ "type": "Feature", "id": 55, "properties": { "OBJECTID": 55, "FID": 54, "id": 1010003311, "retailer": "Sainsburys", "store_name": "Sainsburys Richmond", "postcode": "TW9 4LT", "long_wgs": -0.286481849, "lat_wgs": 51.46662537, "size_band": "30,138 ft2 > (2,800 m2)", "points": "POINT (519122.9979694 175576.0002253343)" }, "geometry": { "type": "Point", "coordinates": [ -7.557216602333293, 49.767267768921776 ] } },
{ "type": "Feature", "id": 56, "properties": { "OBJECTID": 56, "FID": 55, "id": 1010003312, "retailer": "Sainsburys", "store_name": "Sainsburys Hayes", "postcode": "UB3 3EX", "long_wgs": -0.40333568, "lat_wgs": 51.51546616, "size_band": "30,138 ft2 > (2,800 m2)", "points": "POINT (510887.9979586551 180824.0000432861)" }, "geometry": { "type": "Point", "coordinates": [ -7.55721826679822, 49.767268128998047 ] } },
{ "type": "Feature", "id": 57, "properties": { "OBJECTID": 57, "FID": 56, "id": 1010003313, "retailer": "Sainsburys", "store_name": "Sainsburys Uxbridge", "postcode": "UB8 1QW", "long_wgs": -0.474676946, "lat_wgs": 51.54866128, "size_band": "30,138 ft2 > (2,800 m2)", "points": "POINT (505860.997993355 184410.0003703086)" }, "geometry": { "type": "Point", "coordinates": [ -7.557219287580749, 49.767268377824898 ] } },
{ "type": "Feature", "id": 58, "properties": { "OBJECTID": 58, "FID": 57, "id": 1010003386, "retailer": "Sainsburys", "store_name": "Sainsburys Bromley Upper Elmers End Road Local", "postcode": "BR3 3DE", "long_wgs": -0.027702019, "lat_wgs": 51.39075635, "size_band": "< 3,013 ft2 (280m2)", "points": "POINT (537324.2979583557 167591.6504430421)" }, "geometry": { "type": "Point", "coordinates": [ -7.557212947604406, 49.767267261571369 ] } },
{ "type": "Feature", "id": 59, "properties": { "OBJECTID": 59, "FID": 58, "id": 1010003416, "retailer": "Sainsburys", "store_name": "Sainsburys Croydon George Street Local", "postcode": "CR0 1PE", "long_wgs": -0.096314554, "lat_wgs": 51.37405646, "size_band": "< 3,013 ft2 (280m2)", "points": "POINT (532599.0179754675 165608.4101952891)" }, "geometry": { "type": "Point", "coordinates": [ -7.55721387856203, 49.767267066459162 ] } },
{ "type": "Feature", "id": 60, "properties": { "OBJECTID": 60, "FID": 59, "id": 1010003418, "retailer": "Sainsburys", "store_name": "Sainsburys Croydon West Croydon Station Local", "postcode": "CR0 2RE", "long_wgs": -0.103593439, "lat_wgs": 51.3787564, "size_band": "3,013 < 15,069 ft2 (280 < 1,400 m2)", "points": "POINT (532078.9079812657 166117.9200760288)" }, "geometry": { "type": "Point", "coordinates": [ -7.557213984278635, 49.767267103678499 ] } },
{ "type": "Feature", "id": 61, "properties": { "OBJECTID": 61, "FID": 60, "id": 1010003420, "retailer": "Sainsburys", "store_name": "Sainsburys Purley High Street Local", "postcode": "CR8 2AB", "long_wgs": -0.114527041, "lat_wgs": 51.33955722, "size_band": "< 3,013 ft2 (280m2)", "points": "POINT (531430.0979873168 161739.3203264743)" }, "geometry": { "type": "Point", "coordinates": [ -7.557214094680285, 49.76726674551869 ] } },
{ "type": "Feature", "id": 62, "properties": { "OBJECTID": 62, "FID": 61, "id": 1010003432, "retailer": "Sainsburys", "store_name": "Sainsburys Belvedere Nuxley Road Local", "postcode": "DA17 5JG", "long_wgs": 0.144807085, "lat_wgs": 51.4817789, "size_band": "< 3,013 ft2 (280m2)", "points": "POINT (549029.5179796632 178050.2303788112)" }, "geometry": { "type": "Point", "coordinates": [ -7.557210657054354, 49.76726819178959 ] } },
{ "type": "Feature", "id": 63, "properties": { "OBJECTID": 63, "FID": 62, "id": 1010003474, "retailer": "Sainsburys", "store_name": "Sainsburys Leytonstone Church Lane Local", "postcode": "E11 1HG", "long_wgs": 0.009549053, "lat_wgs": 51.56825282, "size_band": "< 3,013 ft2 (280m2)", "points": "POINT (539374.1380081933 187399.8098077222)" }, "geometry": { "type": "Point", "coordinates": [ -7.557212614319902, 49.767268875324113 ] } },
{ "type": "Feature", "id": 64, "properties": { "OBJECTID": 64, "FID": 63, "id": 1010003482, "retailer": "Sainsburys", "store_name": "Sainsburys Tower Hamlets Allgood Street Local", "postcode": "E2 7SJ", "long_wgs": -0.070154115, "lat_wgs": 51.53085336, "size_band": "< 3,013 ft2 (280m2)", "points": "POINT (533960.2979846718 183092.0804519092)" }, "geometry": { "type": "Point", "coordinates": [ -7.557213677436255, 49.767268487527929 ] } },
{ "type": "Feature", "id": 65, "properties": { "OBJECTID": 65, "FID": 64, "id": 1010003485, "retailer": "Sainsburys", "store_name": "Sainsburys Hackney Town Hall Local", "postcode": "E8 1GR", "long_wgs": -0.05561843, "lat_wgs": 51.54435307, "size_band": "< 3,013 ft2 (280m2)", "points": "POINT (534928.5779635779 184619.980518178)" }, "geometry": { "type": "Point", "coordinates": [ -7.557213490895223, 49.767268618019621 ] } },
{ "type": "Feature", "id": 66, "properties": { "OBJECTID": 66, "FID": 65, "id": 1010003491, "retailer": "Sainsburys", "store_name": "Sainsburys Shoreditch Old Street Local", "postcode": "EC1V 9EY", "long_wgs": -0.083984755, "lat_wgs": 51.52665341, "size_band": "< 3,013 ft2 (280m2)", "points": "POINT (533013.2479854517 182599.8201965968)" }, "geometry": { "type": "Point", "coordinates": [ -7.557213865232599, 49.767268440687211 ] } },
{ "type": "Feature", "id": 67, "properties": { "OBJECTID": 67, "FID": 66, "id": 1010003496, "retailer": "Sainsburys", "store_name": "Sainsburys Fetter Lane Local", "postcode": "EC4A 1AA", "long_wgs": -0.108759956, "lat_wgs": 51.5175642, "size_band": "< 3,013 ft2 (280m2)", "points": "POINT (531320.8236791613 181544.3573206728)" }, "geometry": { "type": "Point", "coordinates": [ -7.557214197262356, 49.767268342800897 ] } },
{ "type": "Feature", "id": 68, "properties": { "OBJECTID": 68, "FID": 67, "id": 1010003497, "retailer": "Sainsburys", "store_name": "Sainsburys London Paternoster Square Local", "postcode": "EC4M 7DX", "long_wgs": -0.099059503, "lat_wgs": 51.51495361, "size_band": "< 3,013 ft2 (280m2)", "points": "POINT (532001.377994278 181271.4898102059)" }, "geometry": { "type": "Point", "coordinates": [ -7.557214060531931, 49.767268325976325 ] } },
{ "type": "Feature", "id": 69, "properties": { "OBJECTID": 69, "FID": 68, "id": 1010003500, "retailer": "Sainsburys", "store_name": "Sainsburys The City Fleet Street Local", "postcode": "EC4Y 1HY", "long_wgs": -0.106791155, "lat_wgs": 51.51405361, "size_band": "< 3,013 ft2 (280m2)", "points": "POINT (531467.5179667368 181157.5003229855)" }, "geometry": { "type": "Point", "coordinates": [ -7.557214167409701, 49.767268312732931 ] } },
{ "type": "Feature", "id": 70, "properties": { "OBJECTID": 70, "FID": 69, "id": 1010003523, "retailer": "Sainsburys", "store_name": "Sainsburys Barnet Local", "postcode": "EN5 5XP", "long_wgs": -0.201705319, "lat_wgs": 51.65555045, "size_band": "< 3,013 ft2 (280m2)", "points": "POINT (524494.8379738505 196726.6696269033)" }, "geometry": { "type": "Point", "coordinates": [ -7.557215624267612, 49.767269516311273 ] } },
{ "type": "Feature", "id": 71, "properties": { "OBJECTID": 71, "FID": 70, "id": 1010003555, "retailer": "Sainsburys", "store_name": "Sainsburys Rayners Lane Local", "postcode": "HA5 5ER", "long_wgs": -0.371379489, "lat_wgs": 51.57675163, "size_band": "< 3,013 ft2 (280m2)", "points": "POINT (512953.5579767183 187688.2499360813)" }, "geometry": { "type": "Point", "coordinates": [ -7.557217888747267, 49.76726869806236 ] } },
{ "type": "Feature", "id": 72, "properties": { "OBJECTID": 72, "FID": 71, "id": 1010003588, "retailer": "Sainsburys", "store_name": "Sainsburys High Road Ilford Local", "postcode": "IG1 1LL", "long_wgs": 0.075149827, "lat_wgs": 51.55915311, "size_band": "< 3,013 ft2 (280m2)", "points": "POINT (543949.0579935709 186514.8905720854)" }, "geometry": { "type": "Point", "coordinates": [ -7.55721169833708, 49.767268837484266 ] } },
{ "type": "Feature", "id": 73, "properties": { "OBJECTID": 73, "FID": 72, "id": 1010003597, "retailer": "Sainsburys", "store_name": "Sainsburys Worcester Park Local", "postcode": "KT4 8EG", "long_wgs": -0.238653801, "lat_wgs": 51.3768562, "size_band": "< 3,013 ft2 (280m2)", "points": "POINT (522684.9979962999 165672.1702809219)" }, "geometry": { "type": "Point", "coordinates": [ -7.557215848127479, 49.767266996899522 ] } },
{ "type": "Feature", "id": 74, "properties": { "OBJECTID": 74, "FID": 73, "id": 1010003598, "retailer": "Sainsburys", "store_name": "Sainsburys Surbiton Station Local", "postcode": "KT6 4PE", "long_wgs": -0.304578624, "lat_wgs": 51.39255563, "size_band": "< 3,013 ft2 (280m2)", "points": "POINT (518056.6079914824 167309.8599815922)" }, "geometry": { "type": "Point", "coordinates": [ -7.557216776414392, 49.767267093555411 ] } },
{ "type": "Feature", "id": 75, "properties": { "OBJECTID": 75, "FID": 74, "id": 1010003652, "retailer": "Sainsburys", "store_name": "Sainsburys London Arnos Grove Local", "postcode": "N11 1AH", "long_wgs": -0.135789298, "lat_wgs": 51.61635136, "size_band": "< 3,013 ft2 (280m2)", "points": "POINT (529165.488007689 192481.8197017646)" }, "geometry": { "type": "Point", "coordinates": [ -7.557214673236616, 49.767269209220935 ] } },
{ "type": "Feature", "id": 76, "properties": { "OBJECTID": 76, "FID": 75, "id": 1010003655, "retailer": "Sainsburys", "store_name": "Sainsburys Haringey West Green Road Local", "postcode": "N15 3PB", "long_wgs": -0.092261116, "lat_wgs": 51.58595215, "size_band": "< 3,013 ft2 (280m2)", "points": "POINT (532267.1479510833 189179.0606397071)" }, "geometry": { "type": "Point", "coordinates": [ -7.557214039442537, 49.767268966077893 ] } },
{ "type": "Feature", "id": 77, "properties": { "OBJECTID": 77, "FID": 76, "id": 1010003657, "retailer": "Sainsburys", "store_name": "Sainsburys Stoke Newington Local", "postcode": "N16 7NY", "long_wgs": -0.073835145, "lat_wgs": 51.55985275, "size_band": "< 3,013 ft2 (280m2)", "points": "POINT (533620.0679667636 186310.1797410322)" }, "geometry": { "type": "Point", "coordinates": [ -7.557213758345598, 49.767268744670559 ] } },
{ "type": "Feature", "id": 78, "properties": { "OBJECTID": 78, "FID": 77, "id": 1010003658, "retailer": "Sainsburys", "store_name": "Sainsburys Tottenham Lordship Lane Local", "postcode": "N17 6AG", "long_wgs": -0.091724073, "lat_wgs": 51.59775195, "size_band": "< 3,013 ft2 (280m2)", "points": "POINT (532270.0979525384 190492.2205079447)" }, "geometry": { "type": "Point", "coordinates": [ -7.557214044646548, 49.767269072041948 ] } },
{ "type": "Feature", "id": 79, "properties": { "OBJECTID": 79, "FID": 78, "id": 1010014880, "retailer": "Waitrose", "store_name": "Little Waitrose Finchley Central", "postcode": "N3 2LN", "long_wgs": -0.195022108, "lat_wgs": 51.59989103, "size_band": "< 3,013 ft2 (280m2)", "points": "POINT (525110.0182488043 190548.3869488861)" }, "geometry": { "type": "Point", "coordinates": [ -7.55721547458733, 49.767269023044932 ] } },
{ "type": "Feature", "id": 80, "properties": { "OBJECTID": 80, "FID": 79, "id": 1010003659, "retailer": "Sainsburys", "store_name": "Sainsburys Tottenham High Road Local", "postcode": "N17 8AD", "long_wgs": -0.068150488, "lat_wgs": 51.60015189, "size_band": "< 3,013 ft2 (280m2)", "points": "POINT (533895.687978991 190801.9898114277)" }, "geometry": { "type": "Point", "coordinates": [ -7.557213720941087, 49.767269109219548 ] } },
{ "type": "Feature", "id": 81, "properties": { "OBJECTID": 81, "FID": 80, "id": 1010003661, "retailer": "Sainsburys", "store_name": "Sainsburys London Wood Green Local", "postcode": "N22 6EJ", "long_wgs": -0.10903464, "lat_wgs": 51.59675187, "size_band": "< 3,013 ft2 (280m2)", "points": "POINT (531074.0879799561 190349.8502654829)" }, "geometry": { "type": "Point", "coordinates": [ -7.557214282718658, 49.767269051586197 ] } },
{ "type": "Feature", "id": 82, "properties": { "OBJECTID": 82, "FID": 81, "id": 1010003664, "retailer": "Sainsburys", "store_name": "Sainsburys Finsbury Park Stroud Green Road Local", "postcode": "N4 3ED", "long_wgs": -0.107718659, "lat_wgs": 51.56645254, "size_band": "< 3,013 ft2 (280m2)", "points": "POINT (531252.437989131 186982.7902624925)" }, "geometry": { "type": "Point", "coordinates": [ -7.557214233644436, 49.767268781210262 ] } },
{ "type": "Feature", "id": 83, "properties": { "OBJECTID": 83, "FID": 82, "id": 1010004751, "retailer": "Tesco", "store_name": "Tesco Croydon Leon House Express", "postcode": "CR0 9XT", "long_wgs": -0.099028272, "lat_wgs": 51.36931189, "size_band": "< 3,013 ft2 (280m2)", "points": "POINT (532423.8279784898 165075.9106482374)" }, "geometry": { "type": "Point", "coordinates": [ -7.557213911052798, 49.767267022590154 ] } },
{ "type": "Feature", "id": 84, "properties": { "OBJECTID": 84, "FID": 83, "id": 1010003665, "retailer": "Sainsburys", "store_name": "Sainsburys London Crouch Hill Local", "postcode": "N4 3PZ", "long_wgs": -0.115042411, "lat_wgs": 51.57045237, "size_band": "< 3,013 ft2 (280m2)", "points": "POINT (530733.3980008201 187414.4797602628)" }, "geometry": { "type": "Point", "coordinates": [ -7.557214338642383, 49.767268812163316 ] } },
{ "type": "Feature", "id": 85, "properties": { "OBJECTID": 85, "FID": 84, "id": 1010001213, "retailer": "Budgens", "store_name": "Budgens Ruislip Manor London", "postcode": "HA4 9AB", "long_wgs": -0.41225409, "lat_wgs": 51.57248565, "size_band": "< 3,013 ft2 (280m2)", "points": "POINT (510131.5779244287 187151.5506718437)" }, "geometry": { "type": "Point", "coordinates": [ -7.557218448321451, 49.767268633334041 ] } },
{ "type": "Feature", "id": 86, "properties": { "OBJECTID": 86, "FID": 85, "id": 1010003666, "retailer": "Sainsburys", "store_name": "Sainsburys Highgate Archway Road Local", "postcode": "N6 5AX", "long_wgs": -0.142392965, "lat_wgs": 51.5750523, "size_band": "< 3,013 ft2 (280m2)", "points": "POINT (528825.0279870054 187877.5105762368)" }, "geometry": { "type": "Point", "coordinates": [ -7.557214722053145, 49.767268835121655 ] } },
{ "type": "Feature", "id": 87, "properties": { "OBJECTID": 87, "FID": 86, "id": 1010003660, "retailer": "Sainsburys", "store_name": "Sainsburys Archway Local", "postcode": "N19 5SS", "long_wgs": -0.131904633, "lat_wgs": 51.56432184, "size_band": "< 3,013 ft2 (280m2)", "points": "POINT (529582.2736456342 186702.7500662106)" }, "geometry": { "type": "Point", "coordinates": [ -7.557214565950324, 49.767268746319246 ] } },
{ "type": "Feature", "id": 88, "properties": { "OBJECTID": 88, "FID": 87, "id": 1010003499, "retailer": "Sainsburys", "store_name": "Sainsburys Cannon Street Station Local", "postcode": "EC4N 6HA", "long_wgs": -0.088938562, "lat_wgs": 51.51125371, "size_band": "< 3,013 ft2 (280m2)", "points": "POINT (532714.3479954421 180878.3397782795)" }, "geometry": { "type": "Point", "coordinates": [ -7.557213917143917, 49.767268299570723 ] } },
{ "type": "Feature", "id": 89, "properties": { "OBJECTID": 89, "FID": 88, "id": 1010003490, "retailer": "Sainsburys", "store_name": "Sainsburys London Clerkenwell Road Local", "postcode": "EC1R 5DG", "long_wgs": -0.109834239, "lat_wgs": 51.52215344, "size_band": "< 3,013 ft2 (280m2)", "points": "POINT (531233.1079683325 182052.7705638029)" }, "geometry": { "type": "Point", "coordinates": [ -7.557214217187723, 49.767268383247853 ] } },
{ "type": "Feature", "id": 90, "properties": { "OBJECTID": 90, "FID": 89, "id": 1010003718, "retailer": "Sainsburys", "store_name": "Sainsburys Golders Green Accommodation Road Local", "postcode": "NW11 8EE", "long_wgs": -0.197486856, "lat_wgs": 51.57205214, "size_band": "< 3,013 ft2 (280m2)", "points": "POINT (525015.6479978545 187448.3303266215)" }, "geometry": { "type": "Point", "coordinates": [ -7.557215480495846, 49.767268771626497 ] } },
{ "type": "Feature", "id": 91, "properties": { "OBJECTID": 91, "FID": 90, "id": 1010003719, "retailer": "Sainsburys", "store_name": "Sainsburys London Euston Station Local", "postcode": "NW1 2DU", "long_wgs": -0.133949854, "lat_wgs": 51.52755324, "size_band": "< 3,013 ft2 (280m2)", "points": "POINT (529544.8279690633 182610.3096241273)" }, "geometry": { "type": "Point", "coordinates": [ -7.557214555811358, 49.767268415562029 ] } },
{ "type": "Feature", "id": 92, "properties": { "OBJECTID": 92, "FID": 91, "id": 1010003722, "retailer": "Sainsburys", "store_name": "Sainsburys Willesden Green Local", "postcode": "NW2 4QY", "long_wgs": -0.221064318, "lat_wgs": 51.5488526, "size_band": "< 3,013 ft2 (280m2)", "points": "POINT (523444.5379609333 184828.4003645956)" }, "geometry": { "type": "Point", "coordinates": [ -7.55721578146506, 49.767268548317368 ] } },
{ "type": "Feature", "id": 93, "properties": { "OBJECTID": 93, "FID": 92, "id": 1010003723, "retailer": "Sainsburys", "store_name": "Sainsburys Hendon Vivian Avenue Local", "postcode": "NW4 3DA", "long_wgs": -0.230949348, "lat_wgs": 51.58265191, "size_band": "< 3,013 ft2 (280m2)", "points": "POINT (522668.257933826 188570.4605762364)" }, "geometry": { "type": "Point", "coordinates": [ -7.557215952990886, 49.767268844305995 ] } },
{ "type": "Feature", "id": 94, "properties": { "OBJECTID": 94, "FID": 93, "id": 1010003725, "retailer": "Sainsburys", "store_name": "Sainsburys Kentish Town Local", "postcode": "NW5 2TJ", "long_wgs": -0.140978817, "lat_wgs": 51.55035285, "size_band": "< 3,013 ft2 (280m2)", "points": "POINT (528992.8379784294 185133.3096746581)" }, "geometry": { "type": "Point", "coordinates": [ -7.557214677346045, 49.767268614942445 ] } },
{ "type": "Feature", "id": 95, "properties": { "OBJECTID": 95, "FID": 94, "id": 1010003726, "retailer": "Sainsburys", "store_name": "Sainsburys West Hampstead Local", "postcode": "NW6 1SG", "long_wgs": -0.191271812, "lat_wgs": 51.55005268, "size_band": "< 3,013 ft2 (280m2)", "points": "POINT (525506.837957148 185012.509894909)" }, "geometry": { "type": "Point", "coordinates": [ -7.557215370839055, 49.767268578875573 ] } },
{ "type": "Feature", "id": 96, "properties": { "OBJECTID": 96, "FID": 95, "id": 1010003728, "retailer": "Sainsburys", "store_name": "Sainsburys Kilburn Local", "postcode": "NW6 7QE", "long_wgs": -0.202858667, "lat_wgs": 51.54575271, "size_band": "< 3,013 ft2 (280m2)", "points": "POINT (524715.2579580958 184514.5306796911)" }, "geometry": { "type": "Point", "coordinates": [ -7.557215526745052, 49.7672685326691 ] } },
{ "type": "Feature", "id": 97, "properties": { "OBJECTID": 97, "FID": 96, "id": 1010001772, "retailer": "Marks and Spencer", "store_name": "M&S Trafalgar Greenwich BP", "postcode": "SE10 9TS", "long_wgs": -0.000872706, "lat_wgs": 51.4838954, "size_band": "< 3,013 ft2 (280m2)", "points": "POINT (538908.2080176238 177999.3103894703)" }, "geometry": { "type": "Point", "coordinates": [ -7.557212671509633, 49.767268113769362 ] } },
{ "type": "Feature", "id": 98, "properties": { "OBJECTID": 98, "FID": 97, "id": 1010003793, "retailer": "Sainsburys", "store_name": "Sainsburys Greenwich High Road Local", "postcode": "SE10 8NB", "long_wgs": -0.011105914, "lat_wgs": 51.47875465, "size_band": "< 3,013 ft2 (280m2)", "points": "POINT (538213.2480128787 177408.3005247415)" }, "geometry": { "type": "Point", "coordinates": [ -7.557212808524687, 49.767268060370697 ] } },
{ "type": "Feature", "id": 99, "properties": { "OBJECTID": 99, "FID": 98, "id": 1010003798, "retailer": "Sainsburys", "store_name": "Sainsburys New Cross Lewisham Way Local", "postcode": "SE14 6PP", "long_wgs": -0.034833383, "lat_wgs": 51.47505461, "size_band": "< 3,013 ft2 (280m2)", "points": "POINT (536576.7080227964 176952.3600151975)" }, "geometry": { "type": "Point", "coordinates": [ -7.557213132277578, 49.767268011489229 ] } },
{ "type": "Feature", "id": 100, "properties": { "OBJECTID": 100, "FID": 99, "id": 1010003800, "retailer": "Sainsburys", "store_name": "Sainsburys Bermondsey Station Local", "postcode": "SE16 4RT", "long_wgs": -0.061394243, "lat_wgs": 51.49819977, "size_band": "< 3,013 ft2 (280m2)", "points": "POINT (534664.0679640262 179476.9797853247)" }, "geometry": { "type": "Point", "coordinates": [ -7.557213523727295, 49.767268201483532 ] } },
{ "type": "Feature", "id": 101, "properties": { "OBJECTID": 101, "FID": 100, "id": 1010003803, "retailer": "Sainsburys", "store_name": "Sainsburys Lambeth The Cut Local", "postcode": "SE1 8LL", "long_wgs": -0.107499168, "lat_wgs": 51.50285384, "size_band": "< 3,013 ft2 (280m2)", "points": "POINT (531450.5979774873 179910.7800142601)" }, "geometry": { "type": "Point", "coordinates": [ -7.557214165585828, 49.767268212006982 ] } },
{ "type": "Feature", "id": 102, "properties": { "OBJECTID": 102, "FID": 101, "id": 1010003808, "retailer": "Sainsburys", "store_name": "Sainsburys Herne Hill Local", "postcode": "SE24 9QH", "long_wgs": -0.101397051, "lat_wgs": 51.45315491, "size_band": "< 3,013 ft2 (280m2)", "points": "POINT (532017.4079442215 174395.1005872799)" }, "geometry": { "type": "Point", "coordinates": [ -7.557214030255209, 49.767267771157435 ] } },
{ "type": "Feature", "id": 103, "properties": { "OBJECTID": 103, "FID": 102, "id": 1010003810, "retailer": "Sainsburys", "store_name": "Sainsburys West Norwood Local", "postcode": "SE27 9AA", "long_wgs": -0.104042832, "lat_wgs": 51.43405526, "size_band": "< 3,013 ft2 (280m2)", "points": "POINT (531888.5580038477 172266.4197220794)" }, "geometry": { "type": "Point", "coordinates": [ -7.557214046580241, 49.767267598448598 ] } },
{ "type": "Feature", "id": 104, "properties": { "OBJECTID": 104, "FID": 103, "id": 1010001192, "retailer": "Budgens", "store_name": "Budgens Whitechapel London", "postcode": "E1 1BY", "long_wgs": -0.059291612, "lat_wgs": 51.51956758, "size_band": "< 3,013 ft2 (280m2)", "points": "POINT (534746.9980004672 181856.9999862657)" }, "geometry": { "type": "Point", "coordinates": [ -7.557213516673888, 49.767268394449076 ] } },
{ "type": "Feature", "id": 105, "properties": { "OBJECTID": 105, "FID": 104, "id": 1010003488, "retailer": "Sainsburys", "store_name": "Sainsburys Clerkenwell St John's Lane Local", "postcode": "EC1M 4NU", "long_wgs": -0.102215335, "lat_wgs": 51.52195344, "size_band": "< 3,013 ft2 (280m2)", "points": "POINT (531762.2279477558 182044.2104853215)" }, "geometry": { "type": "Point", "coordinates": [ -7.557214111944788, 49.767268386511219 ] } },
{ "type": "Feature", "id": 106, "properties": { "OBJECTID": 106, "FID": 105, "id": 1010003812, "retailer": "Sainsburys", "store_name": "Sainsburys Brockley Mantle Court Local", "postcode": "SE4 2EW", "long_wgs": -0.039034215, "lat_wgs": 51.46375486, "size_band": "< 3,013 ft2 (280m2)", "points": "POINT (536318.6380118449 175687.9896972587)" }, "geometry": { "type": "Point", "coordinates": [ -7.557213178723619, 49.767267907540706 ] } },
{ "type": "Feature", "id": 107, "properties": { "OBJECTID": 107, "FID": 106, "id": 1010003828, "retailer": "Sainsburys", "store_name": "Sainsburys Carshalton Stanley Park Road Local", "postcode": "SM5 3JG", "long_wgs": -0.161928223, "lat_wgs": 51.35514273, "size_band": "< 3,013 ft2 (280m2)", "points": "POINT (528085.1679933581 163388.6598735409)" }, "geometry": { "type": "Point", "coordinates": [ -7.557214765798824, 49.767266853647776 ] } },
{ "type": "Feature", "id": 108, "properties": { "OBJECTID": 108, "FID": 107, "id": 1010003848, "retailer": "Sainsburys", "store_name": "Sainsburys Chelsea Redcliffe Gardens Local", "postcode": "SW10 9EW", "long_wgs": -0.184605517, "lat_wgs": 51.48411104, "size_band": "< 3,013 ft2 (280m2)", "points": "POINT (526150.9280165267 177690.9600051211)" }, "geometry": { "type": "Point", "coordinates": [ -7.557215211966439, 49.767267993338884 ] } },
{ "type": "Feature", "id": 109, "properties": { "OBJECTID": 109, "FID": 108, "id": 1010003851, "retailer": "Sainsburys", "store_name": "Sainsburys Wandsworth St Johns Hill Local", "postcode": "SW11 1TQ", "long_wgs": -0.177114569, "lat_wgs": 51.46005458, "size_band": "< 3,013 ft2 (280m2)", "points": "POINT (526737.6279632143 175028.720278529)" }, "geometry": { "type": "Point", "coordinates": [ -7.557215083568832, 49.767267782587076 ] } },
{ "type": "Feature", "id": 110, "properties": { "OBJECTID": 110, "FID": 109, "id": 1010003855, "retailer": "Sainsburys", "store_name": "Sainsburys Barnes White Hart Lane Local", "postcode": "SW13 0PX", "long_wgs": -0.255233093, "lat_wgs": 51.4705541, "size_band": "< 3,013 ft2 (280m2)", "points": "POINT (521283.0780110972 176064.1399931887)" }, "geometry": { "type": "Point", "coordinates": [ -7.557216173748136, 49.767267824647362 ] } },
{ "type": "Feature", "id": 111, "properties": { "OBJECTID": 111, "FID": 110, "id": 1010003856, "retailer": "Sainsburys", "store_name": "Sainsburys Barnes High Street Local", "postcode": "SW13 9LW", "long_wgs": -0.249008287, "lat_wgs": 51.47355408, "size_band": "< 3,013 ft2 (280m2)", "points": "POINT (521707.4279661947 176408.0701138409)" }, "geometry": { "type": "Point", "coordinates": [ -7.557216091139495, 49.767267855625633 ] } },
{ "type": "Feature", "id": 112, "properties": { "OBJECTID": 112, "FID": 111, "id": 1010003858, "retailer": "Sainsburys", "store_name": "Sainsburys Wandsworth East Putney Station Local", "postcode": "SW15 2SU", "long_wgs": -0.209191887, "lat_wgs": 51.45905456, "size_band": "< 3,013 ft2 (280m2)", "points": "POINT (524512.0080088364 174862.539907881)" }, "geometry": { "type": "Point", "coordinates": [ -7.557215526187841, 49.767267752289818 ] } },
{ "type": "Feature", "id": 113, "properties": { "OBJECTID": 113, "FID": 112, "id": 1010003861, "retailer": "Sainsburys", "store_name": "Sainsburys Streatham High Road Local", "postcode": "SW16 1BJ", "long_wgs": -0.1293494, "lat_wgs": 51.43245526, "size_band": "< 3,013 ft2 (280m2)", "points": "POINT (530134.1279710488 172043.2798821576)" }, "geometry": { "type": "Point", "coordinates": [ -7.557214394602274, 49.767267567302021 ] } },
{ "type": "Feature", "id": 114, "properties": { "OBJECTID": 114, "FID": 113, "id": 1010003862, "retailer": "Sainsburys", "store_name": "Sainsburys Wandsworth Common Bellevue Road Local", "postcode": "SW17 7EF", "long_wgs": -0.167459641, "lat_wgs": 51.44415494, "size_band": "< 3,013 ft2 (280m2)", "points": "POINT (527452.5680116024 173277.3700432768)" }, "geometry": { "type": "Point", "coordinates": [ -7.557214933184058, 49.767267646703175 ] } },
{ "type": "Feature", "id": 115, "properties": { "OBJECTID": 115, "FID": 114, "id": 1010003865, "retailer": "Sainsburys", "store_name": "Sainsburys Wandsworth Old York Road Local", "postcode": "SW18 1TG", "long_wgs": -0.188671242, "lat_wgs": 51.45995457, "size_band": "< 3,013 ft2 (280m2)", "points": "POINT (525935.0879687092 174997.6803467849)" }, "geometry": { "type": "Point", "coordinates": [ -7.557215242404647, 49.767267774044768 ] } },
{ "type": "Feature", "id": 116, "properties": { "OBJECTID": 116, "FID": 115, "id": 1010003866, "retailer": "Sainsburys", "store_name": "Sainsburys Earlsfield Local", "postcode": "SW18 3NY", "long_wgs": -0.18715829, "lat_wgs": 51.44215491, "size_band": "< 3,013 ft2 (280m2)", "points": "POINT (526089.1779890597 173020.9001546124)" }, "geometry": { "type": "Point", "coordinates": [ -7.557215203399296, 49.767267615699687 ] } },
{ "type": "Feature", "id": 117, "properties": { "OBJECTID": 117, "FID": 116, "id": 1010003874, "retailer": "Sainsburys", "store_name": "Sainsburys Victoria Place Local", "postcode": "SW1W 9SJ", "long_wgs": -0.145508443, "lat_wgs": 51.49395387, "size_band": "3,013 < 15,069 ft2 (280 < 1,400 m2)", "points": "POINT (528837.7479686349 178853.5501624128)" }, "geometry": { "type": "Point", "coordinates": [ -7.557214681636719, 49.767268107067004 ] } },
{ "type": "Feature", "id": 118, "properties": { "OBJECTID": 118, "FID": 117, "id": 1010003878, "retailer": "Sainsburys", "store_name": "Sainsburys Streatham Hill Local", "postcode": "SW2 4TS", "long_wgs": -0.125117422, "lat_wgs": 51.44055502, "size_band": "< 3,013 ft2 (280m2)", "points": "POINT (530405.2380192328 172951.5100067718)" }, "geometry": { "type": "Point", "coordinates": [ -7.557214344870978, 49.767267642604672 ] } },
{ "type": "Feature", "id": 119, "properties": { "OBJECTID": 119, "FID": 118, "id": 1010003879, "retailer": "Sainsburys", "store_name": "Sainsburys Brompton Road Local", "postcode": "SW3 1JJ", "long_wgs": -0.164877107, "lat_wgs": 51.49915381, "size_band": "< 3,013 ft2 (280m2)", "points": "POINT (527478.7579786953 179397.9201900616)" }, "geometry": { "type": "Point", "coordinates": [ -7.557214955097557, 49.767268140716148 ] } },
{ "type": "Feature", "id": 120, "properties": { "OBJECTID": 120, "FID": 119, "id": 1010003880, "retailer": "Sainsburys", "store_name": "Sainsburys Sloane Avenue Local", "postcode": "SW3 3DH", "long_wgs": -0.166083924, "lat_wgs": 51.49225395, "size_band": "< 3,013 ft2 (280m2)", "points": "POINT (527414.2179588693 178628.5305295747)" }, "geometry": { "type": "Point", "coordinates": [ -7.557214964598614, 49.767268078150565 ] } },
{ "type": "Feature", "id": 121, "properties": { "OBJECTID": 121, "FID": 120, "id": 1010003888, "retailer": "Sainsburys", "store_name": "Sainsburys Lambeth Vauxhall Station Local", "postcode": "SW8 1SP", "long_wgs": -0.123735784, "lat_wgs": 51.48565416, "size_band": "< 3,013 ft2 (280m2)", "points": "POINT (530372.7679971984 177969.1102641129)" }, "geometry": { "type": "Point", "coordinates": [ -7.557214371823513, 49.767268047263087 ] } },
{ "type": "Feature", "id": 122, "properties": { "OBJECTID": 122, "FID": 121, "id": 1010003892, "retailer": "Sainsburys", "store_name": "Sainsburys Stockwell Clapham Road Local", "postcode": "SW9 9AE", "long_wgs": -0.125218684, "lat_wgs": 51.47045246, "size_band": "< 3,013 ft2 (280m2)", "points": "POINT (530313.0979886262 176275.9998893139)" }, "geometry": { "type": "Point", "coordinates": [ -7.557214376949656, 49.767267910197845 ] } },
{ "type": "Feature", "id": 123, "properties": { "OBJECTID": 123, "FID": 122, "id": 1010001281, "retailer": "Budgens", "store_name": "Budgens Honor Oak Park London", "postcode": "SE4 2DH", "long_wgs": -0.038347988, "lat_wgs": 51.45363127, "size_band": "< 3,013 ft2 (280m2)", "points": "POINT (536396.4579996458 174563.5100315713)" }, "geometry": { "type": "Point", "coordinates": [ -7.557213158680023, 49.767267817592732 ] } },
{ "type": "Feature", "id": 124, "properties": { "OBJECTID": 124, "FID": 123, "id": 1010003763, "retailer": "Sainsburys", "store_name": "Sainsburys Harold Hill Local", "postcode": "RM3 8DX", "long_wgs": 0.2188918, "lat_wgs": 51.60605247, "size_band": "< 3,013 ft2 (280m2)", "points": "POINT (553754.0680024761 192022.590256211)" }, "geometry": { "type": "Point", "coordinates": [ -7.557209760446609, 49.767269352880639 ] } },
{ "type": "Feature", "id": 125, "properties": { "OBJECTID": 125, "FID": 124, "id": 1010003868, "retailer": "Sainsburys", "store_name": "Sainsburys South Wimbledon Station Local", "postcode": "SW19 1JX", "long_wgs": -0.193289939, "lat_wgs": 51.4157555, "size_band": "< 3,013 ft2 (280m2)", "points": "POINT (525735.4480010839 170074.6799011001)" }, "geometry": { "type": "Point", "coordinates": [ -7.557215261984497, 49.767267375248629 ] } },
{ "type": "Feature", "id": 126, "properties": { "OBJECTID": 126, "FID": 125, "id": 1010003932, "retailer": "Sainsburys", "store_name": "Sainsburys Hampton Hill Local", "postcode": "TW12 1NH", "long_wgs": -0.35580095, "lat_wgs": 51.42675477, "size_band": "< 3,013 ft2 (280m2)", "points": "POINT (514407.6879699826 171031.7997961327)" }, "geometry": { "type": "Point", "coordinates": [ -7.557217519147314, 49.767267365661638 ] } },
{ "type": "Feature", "id": 127, "properties": { "OBJECTID": 127, "FID": 126, "id": 1010001773, "retailer": "Marks and Spencer", "store_name": "M&S Lee Lewisham BP", "postcode": "SE13 5PQ", "long_wgs": 0.004484394, "lat_wgs": 51.45882571, "size_band": "< 3,013 ft2 (280m2)", "points": "POINT (539356.4679854705 175221.7096307316)" }, "geometry": { "type": "Point", "coordinates": [ -7.557212572491006, 49.767267892602788 ] } },
{ "type": "Feature", "id": 128, "properties": { "OBJECTID": 128, "FID": 127, "id": 1010003936, "retailer": "Sainsburys", "store_name": "Sainsburys Hounslow Staines Road Local", "postcode": "TW4 5AL", "long_wgs": -0.378531676, "lat_wgs": 51.4653539, "size_band": "< 3,013 ft2 (280m2)", "points": "POINT (512732.4479501434 175289.0303585538)" }, "geometry": { "type": "Point", "coordinates": [ -7.557217872506459, 49.767267696107446 ] } },
{ "type": "Feature", "id": 129, "properties": { "OBJECTID": 129, "FID": 128, "id": 1010003938, "retailer": "Sainsburys", "store_name": "Sainsburys Brentford Great West Quarter Local", "postcode": "TW8 0GB", "long_wgs": -0.302561837, "lat_wgs": 51.49055505, "size_band": "< 3,013 ft2 (280m2)", "points": "POINT (517944.4157727602 178211.0975006524)" }, "geometry": { "type": "Point", "coordinates": [ -7.557216848001846, 49.767267972231004 ] } },
{ "type": "Feature", "id": 130, "properties": { "OBJECTID": 130, "FID": 129, "id": 1010003944, "retailer": "Sainsburys", "store_name": "Sainsburys Hammersmith Goldhawk Road Station Local", "postcode": "W12 8HA", "long_wgs": -0.227068789, "lat_wgs": 51.50245354, "size_band": "< 3,013 ft2 (280m2)", "points": "POINT (523153.2479475195 179658.4805761279)" }, "geometry": { "type": "Point", "coordinates": [ -7.557215816753258, 49.767268128962748 ] } },
{ "type": "Feature", "id": 131, "properties": { "OBJECTID": 131, "FID": 130, "id": 1010003946, "retailer": "Sainsburys", "store_name": "Sainsburys Ealing Northfields Local", "postcode": "W13 9QU", "long_wgs": -0.31494595, "lat_wgs": 51.50004784, "size_band": "< 3,013 ft2 (280m2)", "points": "POINT (517060.382779174 179246.8897108548)" }, "geometry": { "type": "Point", "coordinates": [ -7.557217029132099, 49.767268049027777 ] } },
{ "type": "Feature", "id": 132, "properties": { "OBJECTID": 132, "FID": 131, "id": 1010003947, "retailer": "Sainsburys", "store_name": "Sainsburys Kensington Addison Road Local", "postcode": "W14 8NS", "long_wgs": -0.205067337, "lat_wgs": 51.4971537, "size_band": "< 3,013 ft2 (280m2)", "points": "POINT (524694.6779568006 179106.3304366074)" }, "geometry": { "type": "Point", "coordinates": [ -7.557215507255839, 49.767268096147326 ] } },
{ "type": "Feature", "id": 133, "properties": { "OBJECTID": 133, "FID": 132, "id": 1010003948, "retailer": "Sainsburys", "store_name": "Sainsburys Hammersmith North End Crescent Local", "postcode": "W14 8TG", "long_wgs": -0.207300161, "lat_wgs": 51.49225387, "size_band": "< 3,013 ft2 (280m2)", "points": "POINT (524553.0379811061 178557.6503296688)" }, "geometry": { "type": "Point", "coordinates": [ -7.557215534012985, 49.767268050753934 ] } },
{ "type": "Feature", "id": 134, "properties": { "OBJECTID": 134, "FID": 133, "id": 1010003956, "retailer": "Sainsburys", "store_name": "Sainsburys Westminster Edgware Road Local", "postcode": "W2 1DY", "long_wgs": -0.170668949, "lat_wgs": 51.52065332, "size_band": "< 3,013 ft2 (280m2)", "points": "POINT (527016.9979675331 181778.6906375916)" }, "geometry": { "type": "Point", "coordinates": [ -7.557215055948584, 49.767268329390141 ] } },
{ "type": "Feature", "id": 135, "properties": { "OBJECTID": 135, "FID": 134, "id": 1010003960, "retailer": "Sainsburys", "store_name": "Sainsburys Westminster Queensway North Local", "postcode": "W2 4SB", "long_wgs": -0.188585631, "lat_wgs": 51.51554939, "size_band": "< 3,013 ft2 (280m2)", "points": "POINT (525788.0679645131 181180.1901025324)" }, "geometry": { "type": "Point", "coordinates": [ -7.557215299485976, 49.767268271766426 ] } },
{ "type": "Feature", "id": 136, "properties": { "OBJECTID": 136, "FID": 135, "id": 1010003963, "retailer": "Sainsburys", "store_name": "Sainsburys Ealing Acton Town Station Local", "postcode": "W3 8HR", "long_wgs": -0.281932542, "lat_wgs": 51.50209499, "size_band": "< 3,013 ft2 (280m2)", "points": "POINT (519346.4291439744 179527.8068593441)" }, "geometry": { "type": "Point", "coordinates": [ -7.557216575203734, 49.767268089770518 ] } },
{ "type": "Feature", "id": 137, "properties": { "OBJECTID": 137, "FID": 136, "id": 1010003965, "retailer": "Sainsburys", "store_name": "Sainsburys Ealing Broadway Local", "postcode": "W5 2NP", "long_wgs": -0.302211505, "lat_wgs": 51.51405311, "size_band": "< 3,013 ft2 (280m2)", "points": "POINT (517908.1279793055 180824.7796451168)" }, "geometry": { "type": "Point", "coordinates": [ -7.557216867981739, 49.767268182798446 ] } },
{ "type": "Feature", "id": 138, "properties": { "OBJECTID": 138, "FID": 137, "id": 1010003968, "retailer": "Sainsburys", "store_name": "Sainsburys Hammersmith and Fulham Poplar Grove Local", "postcode": "W6 7PH", "long_wgs": -0.222300888, "lat_wgs": 51.50114257, "size_band": "< 3,013 ft2 (280m2)", "points": "POINT (523487.6979707081 179520.7205096809)" }, "geometry": { "type": "Point", "coordinates": [ -7.557215750461151, 49.767268120450701 ] } },
{ "type": "Feature", "id": 139, "properties": { "OBJECTID": 139, "FID": 138, "id": 1010003969, "retailer": "Sainsburys", "store_name": "Sainsburys Hammersmith Local", "postcode": "W6 8QZ", "long_wgs": -0.219774855, "lat_wgs": 51.48465401, "size_band": "< 3,013 ft2 (280m2)", "points": "POINT (523707.6079916274 177691.3801998862)" }, "geometry": { "type": "Point", "coordinates": [ -7.557215697587627, 49.76726797447445 ] } },
{ "type": "Feature", "id": 140, "properties": { "OBJECTID": 140, "FID": 139, "id": 1010003970, "retailer": "Sainsburys", "store_name": "Sainsburys Hammersmith King Street Local", "postcode": "W6 9NJ", "long_wgs": -0.24358248, "lat_wgs": 51.49335367, "size_band": "< 3,013 ft2 (280m2)", "points": "POINT (522031.4179688602 178618.8998485715)" }, "geometry": { "type": "Point", "coordinates": [ -7.557216036835041, 49.767268036462646 ] } },
{ "type": "Feature", "id": 141, "properties": { "OBJECTID": 141, "FID": 140, "id": 1010003971, "retailer": "Sainsburys", "store_name": "Sainsburys London Boston Manor Local", "postcode": "W7 2DG", "long_wgs": -0.325578958, "lat_wgs": 51.49695336, "size_band": "< 3,013 ft2 (280m2)", "points": "POINT (516330.2379870528 178885.8302945537)" }, "geometry": { "type": "Point", "coordinates": [ -7.557217173831401, 49.767268014161978 ] } },
{ "type": "Feature", "id": 142, "properties": { "OBJECTID": 142, "FID": 141, "id": 1010003973, "retailer": "Sainsburys", "store_name": "Sainsburys Westbourne Park Harrow Road Local", "postcode": "W9 3RU", "long_wgs": -0.200957935, "lat_wgs": 51.52411409, "size_band": "< 3,013 ft2 (280m2)", "points": "POINT (524906.2202429794 182111.4492487137)" }, "geometry": { "type": "Point", "coordinates": [ -7.557215478310164, 49.767268340573047 ] } },
{ "type": "Feature", "id": 143, "properties": { "OBJECTID": 143, "FID": 142, "id": 1010015804, "retailer": "The Southern Co-operative", "store_name": "Co-op Homesdale Road Bromley", "postcode": "BR2 9JQ", "long_wgs": 0.025816275, "lat_wgs": 51.39566782, "size_band": "< 3,013 ft2 (280m2)", "points": "POINT (541032.5393371261 168239.341608271)" }, "geometry": { "type": "Point", "coordinates": [ -7.557212213328198, 49.767267341906205 ] } },
{ "type": "Feature", "id": 144, "properties": { "OBJECTID": 144, "FID": 143, "id": 1010017081, "retailer": "Spar", "store_name": "Spar - Whitehorse Road", "postcode": "CR0 2JG", "long_wgs": -0.097922385, "lat_wgs": 51.38515782, "size_band": "< 3,013 ft2 (280m2)", "points": "POINT (532455.0909670669 166839.98645826)" }, "geometry": { "type": "Point", "coordinates": [ -7.557213912070941, 49.767267164760504 ] } },
{ "type": "Feature", "id": 145, "properties": { "OBJECTID": 145, "FID": 144, "id": 1010001173, "retailer": "Budgens", "store_name": "Budgens Southborough : Bromley London", "postcode": "BR2 8AR", "long_wgs": 0.049821117, "lat_wgs": 51.39017561, "size_band": "< 3,013 ft2 (280m2)", "points": "POINT (542719.477975748 167675.0400649613)" }, "geometry": { "type": "Point", "coordinates": [ -7.557211875983977, 49.767267308630345 ] } },
{ "type": "Feature", "id": 146, "properties": { "OBJECTID": 146, "FID": 145, "id": 1010003981, "retailer": "Sainsburys", "store_name": "Sainsburys Bloomsbury Southampton Row Local", "postcode": "WC1B 4DA", "long_wgs": -0.121827026, "lat_wgs": 51.51935346, "size_band": "< 3,013 ft2 (280m2)", "points": "POINT (530409.1279889944 181719.9800053047)" }, "geometry": { "type": "Point", "coordinates": [ -7.557214380161972, 49.767268350203125 ] } },
{ "type": "Feature", "id": 147, "properties": { "OBJECTID": 147, "FID": 146, "id": 1010003807, "retailer": "Sainsburys", "store_name": "Sainsburys Honor Oak Park Station Local", "postcode": "SE23 1EA", "long_wgs": -0.044666048, "lat_wgs": 51.44935513, "size_band": "< 3,013 ft2 (280m2)", "points": "POINT (535970.1980292874 174076.2599397044)" }, "geometry": { "type": "Point", "coordinates": [ -7.5572132413361, 49.767267774910579 ] } },
{ "type": "Feature", "id": 148, "properties": { "OBJECTID": 148, "FID": 147, "id": 1010001586, "retailer": "Marks and Spencer", "store_name": "M&S Clapham", "postcode": "SW11 1QP", "long_wgs": -0.167279313, "lat_wgs": 51.46218958, "size_band": "3,013 < 15,069 ft2 (280 < 1,400 m2)", "points": "POINT (527414.918001026 175283.1904436381)" }, "geometry": { "type": "Point", "coordinates": [ -7.557214950384219, 49.767267808797754 ] } },
{ "type": "Feature", "id": 149, "properties": { "OBJECTID": 149, "FID": 148, "id": 1010002994, "retailer": "Sainsburys", "store_name": "Sainsburys Stanmore", "postcode": "HA7 4DA", "long_wgs": -0.310966885, "lat_wgs": 51.61708876, "size_band": "15,069 < 30,138 ft2 (1,400 < 2,800 m2)", "points": "POINT (517035.9979963655 192268.9999941642)" }, "geometry": { "type": "Point", "coordinates": [ -7.557217094069052, 49.767269099946716 ] } },
{ "type": "Feature", "id": 150, "properties": { "OBJECTID": 150, "FID": 149, "id": 1010003941, "retailer": "Sainsburys", "store_name": "Sainsburys Ladbroke Grove Station Local", "postcode": "W10 6HJ", "long_wgs": -0.21050534, "lat_wgs": 51.51785322, "size_band": "< 3,013 ft2 (280m2)", "points": "POINT (524260.9380085589 181398.9702867799)" }, "geometry": { "type": "Point", "coordinates": [ -7.557215604521399, 49.767268277792866 ] } },
{ "type": "Feature", "id": 151, "properties": { "OBJECTID": 151, "FID": 150, "id": 1010013460, "retailer": "Marks and Spencer", "store_name": "M&S Sutton Rail SF", "postcode": "SM2 5AD", "long_wgs": -0.190830254, "lat_wgs": 51.35962022, "size_band": "< 3,013 ft2 (280m2)", "points": "POINT (526060.5279663153 163836.530334493)" }, "geometry": { "type": "Point", "coordinates": [ -7.557215169838008, 49.767266874713457 ] } },
{ "type": "Feature", "id": 152, "properties": { "OBJECTID": 152, "FID": 151, "id": 1010001733, "retailer": "Marks and Spencer", "store_name": "M&S Pinkham Way Southgate BP", "postcode": "N11 2UU", "long_wgs": -0.136978707, "lat_wgs": 51.61049499, "size_band": "< 3,013 ft2 (280m2)", "points": "POINT (529099.7479460085 191828.4601118315)" }, "geometry": { "type": "Point", "coordinates": [ -7.557214683866983, 49.767269156502351 ] } },
{ "type": "Feature", "id": 153, "properties": { "OBJECTID": 153, "FID": 152, "id": 1010016102, "retailer": "Tesco", "store_name": "Chessington Express", "postcode": "KT9 1SG", "long_wgs": -0.295431014, "lat_wgs": 51.36925754, "size_band": "< 3,013 ft2 (280m2)", "points": "POINT (518753.2475340468 164733.7884223586)" }, "geometry": { "type": "Point", "coordinates": [ -7.557216625342831, 49.767266891095517 ] } },
{ "type": "Feature", "id": 154, "properties": { "OBJECTID": 154, "FID": 153, "id": 1010002127, "retailer": "Marks and Spencer", "store_name": "M&S Victoria East Rail SF", "postcode": "SW1V 1JU", "long_wgs": -0.143858616, "lat_wgs": 51.49499797, "size_band": "< 3,013 ft2 (280m2)", "points": "POINT (528949.3279927034 178972.5602582265)" }, "geometry": { "type": "Point", "coordinates": [ -7.557214659270773, 49.767268118044448 ] } },
{ "type": "Feature", "id": 155, "properties": { "OBJECTID": 155, "FID": 154, "id": 1010009337, "retailer": "The Co-operative Group", "store_name": "Co-op Wallington", "postcode": "SM6 9HG", "long_wgs": -0.134563582, "lat_wgs": 51.35341038, "size_band": "< 3,013 ft2 (280m2)", "points": "POINT (529995.3754727643 163244.1249295505)" }, "geometry": { "type": "Point", "coordinates": [ -7.557214385365343, 49.767266856649762 ] } },
{ "type": "Feature", "id": 156, "properties": { "OBJECTID": 156, "FID": 155, "id": 1010004425, "retailer": "Tesco", "store_name": "Tesco Feltham Superstore", "postcode": "TW13 4EX", "long_wgs": -0.413203208, "lat_wgs": 51.44373864, "size_band": "15,069 < 30,138 ft2 (1,400 < 2,800 m2)", "points": "POINT (510376.1879727616 172832.5302978246)" }, "geometry": { "type": "Point", "coordinates": [ -7.557218329910531, 49.767267479673606 ] } },
{ "type": "Feature", "id": 157, "properties": { "OBJECTID": 157, "FID": 156, "id": 1010002056, "retailer": "Marks and Spencer", "store_name": "M&S Chelsea SF", "postcode": "SW10 9PZ", "long_wgs": -0.178577741, "lat_wgs": 51.48722501, "size_band": "< 3,013 ft2 (280m2)", "points": "POINT (526560.8280156431 178047.6397834881)" }, "geometry": { "type": "Point", "coordinates": [ -7.557215132224609, 49.767268025079346 ] } },
{ "type": "Feature", "id": 158, "properties": { "OBJECTID": 158, "FID": 157, "id": 1010003849, "retailer": "Sainsburys", "store_name": "Sainsburys Beaufort Street Local", "postcode": "SW10 9PZ", "long_wgs": -0.178772667, "lat_wgs": 51.48705404, "size_band": "< 3,013 ft2 (280m2)", "points": "POINT (526547.7679811575 178028.290600439)" }, "geometry": { "type": "Point", "coordinates": [ -7.557215133401362, 49.767268023222485 ] } },
{ "type": "Feature", "id": 159, "properties": { "OBJECTID": 159, "FID": 158, "id": 1010001590, "retailer": "Marks and Spencer", "store_name": "M&S Kings Rd", "postcode": "SW3 4NX", "long_wgs": -0.164775108, "lat_wgs": 51.48877666, "size_band": "3,013 < 15,069 ft2 (280 < 1,400 m2)", "points": "POINT (527514.7679654023 178244.1200976117)" }, "geometry": { "type": "Point", "coordinates": [ -7.557214941758994, 49.767268048645299 ] } },
{ "type": "Feature", "id": 160, "properties": { "OBJECTID": 160, "FID": 159, "id": 1010004607, "retailer": "Tesco", "store_name": "Tesco Downham Bromley Road Express", "postcode": "BR1 4PB", "long_wgs": -0.003806204, "lat_wgs": 51.4237141, "size_band": "< 3,013 ft2 (280m2)", "points": "POINT (538886.9379683263 171301.5503850253)" }, "geometry": { "type": "Point", "coordinates": [ -7.557212651167992, 49.76726757287441 ] } },
{ "type": "Feature", "id": 161, "properties": { "OBJECTID": 161, "FID": 160, "id": 1010002825, "retailer": "Sainsburys", "store_name": "Sainsburys Locksbottom", "postcode": "BR6 8NZ", "long_wgs": 0.055316343, "lat_wgs": 51.36599889, "size_band": "30,138 ft2 > (2,800 m2)", "points": "POINT (543177.1579809358 164997.3297280358)" }, "geometry": { "type": "Point", "coordinates": [ -7.557211775125189, 49.767267095653416 ] } },
{ "type": "Feature", "id": 162, "properties": { "OBJECTID": 162, "FID": 161, "id": 1010004426, "retailer": "Tesco", "store_name": "Tesco Feltham Dukes Green Superstore", "postcode": "TW14 0LH", "long_wgs": -0.414983686, "lat_wgs": 51.45930565, "size_band": "30,138 ft2 > (2,800 m2)", "points": "POINT (510214.9979654132 174561.0000552289)" }, "geometry": { "type": "Point", "coordinates": [ -7.557218370803501, 49.767267618125189 ] } },
{ "type": "Feature", "id": 163, "properties": { "OBJECTID": 163, "FID": 162, "id": 1010004752, "retailer": "Tesco", "store_name": "Tesco Croydon South End Express", "postcode": "CR2 6EA", "long_wgs": -0.098170304, "lat_wgs": 51.36351382, "size_band": "< 3,013 ft2 (280m2)", "points": "POINT (532500.2679851057 164432.7103076499)" }, "geometry": { "type": "Point", "coordinates": [ -7.557213892659616, 49.767266971268015 ] } },
{ "type": "Feature", "id": 164, "properties": { "OBJECTID": 164, "FID": 163, "id": 1010004753, "retailer": "Tesco", "store_name": "Tesco Mitcham Streatham Road Express", "postcode": "CR4 2AJ", "long_wgs": -0.152614942, "lat_wgs": 51.41642263, "size_band": "< 3,013 ft2 (280m2)", "points": "POINT (528561.9079600831 170219.3800448906)" }, "geometry": { "type": "Point", "coordinates": [ -7.557214700199157, 49.767267408579038 ] } },
{ "type": "Feature", "id": 165, "properties": { "OBJECTID": 165, "FID": 164, "id": 1010010592, "retailer": "Sainsburys", "store_name": "Sainsburys Twickenham Whitton High Street Local", "postcode": "TW2 7LB", "long_wgs": -0.357633923, "lat_wgs": 51.45145438, "size_band": "< 3,013 ft2 (280m2)", "points": "POINT (514218.6880040589 173775.6696084919)" }, "geometry": { "type": "Point", "coordinates": [ -7.557217569382717, 49.767267585574849 ] } },
{ "type": "Feature", "id": 166, "properties": { "OBJECTID": 166, "FID": 165, "id": 1010004755, "retailer": "Tesco", "store_name": "Tesco Coulsdon Express", "postcode": "CR5 2RA", "long_wgs": -0.138552113, "lat_wgs": 51.32112974, "size_band": "< 3,013 ft2 (280m2)", "points": "POINT (529808.7380181468 159647.4405787435)" }, "geometry": { "type": "Point", "coordinates": [ -7.557214407487733, 49.767266564845841 ] } },
{ "type": "Feature", "id": 167, "properties": { "OBJECTID": 167, "FID": 166, "id": 1010004756, "retailer": "Tesco", "store_name": "Tesco Thornton Heath London Road Express", "postcode": "CR7 7ND", "long_wgs": -0.117955046, "lat_wgs": 51.40181812, "size_band": "< 3,013 ft2 (280m2)", "points": "POINT (531013.637953096 168656.6604118789)" }, "geometry": { "type": "Point", "coordinates": [ -7.557214205630607, 49.767267300956696 ] } },
{ "type": "Feature", "id": 168, "properties": { "OBJECTID": 168, "FID": 167, "id": 1010004795, "retailer": "Tesco", "store_name": "Tesco Sidcup Longlands Express", "postcode": "DA15 7DB", "long_wgs": 0.10311217, "lat_wgs": 51.43321693, "size_band": "< 3,013 ft2 (280m2)", "points": "POINT (546289.6479937916 172566.1903218674)" }, "geometry": { "type": "Point", "coordinates": [ -7.557211183484299, 49.767267729001667 ] } },
{ "type": "Feature", "id": 169, "properties": { "OBJECTID": 169, "FID": 168, "id": 1010004798, "retailer": "Tesco", "store_name": "Tesco Welling Upper Wickham Express", "postcode": "DA16 3DX", "long_wgs": 0.110060748, "lat_wgs": 51.46816541, "size_band": "< 3,013 ft2 (280m2)", "points": "POINT (546660.6479860296 176466.3104646333)" }, "geometry": { "type": "Point", "coordinates": [ -7.557211122671605, 49.767268046970415 ] } },
{ "type": "Feature", "id": 170, "properties": { "OBJECTID": 170, "FID": 169, "id": 1010004799, "retailer": "Tesco", "store_name": "Tesco Welling Bellegrove Express", "postcode": "DA16 3QR", "long_wgs": 0.10027348, "lat_wgs": 51.46384761, "size_band": "< 3,013 ft2 (280m2)", "points": "POINT (545994.6680129402 175966.630583755)" }, "geometry": { "type": "Point", "coordinates": [ -7.557211253597606, 49.767268001065695 ] } },
{ "type": "Feature", "id": 171, "properties": { "OBJECTID": 171, "FID": 170, "id": 1010004801, "retailer": "Tesco", "store_name": "Tesco Northumberland Express", "postcode": "DA8 3HD", "long_wgs": 0.162381966, "lat_wgs": 51.47428619, "size_band": "< 3,013 ft2 (280m2)", "points": "POINT (550274.378007701 177252.9506365257)" }, "geometry": { "type": "Point", "coordinates": [ -7.557210406109555, 49.767268136354289 ] } },
{ "type": "Feature", "id": 172, "properties": { "OBJECTID": 172, "FID": 171, "id": 1010004849, "retailer": "Tesco", "store_name": "Tesco Lea Bridge Road Express", "postcode": "E10 7EA", "long_wgs": -0.02127429, "lat_wgs": 51.57198298, "size_band": "< 3,013 ft2 (280m2)", "points": "POINT (537226.8079398683 187756.3605184294)" }, "geometry": { "type": "Point", "coordinates": [ -7.557213043899852, 49.767268888860094 ] } },
{ "type": "Feature", "id": 173, "properties": { "OBJECTID": 173, "FID": 172, "id": 1010004851, "retailer": "Tesco", "store_name": "Tesco Wanstead Express", "postcode": "E11 2AE", "long_wgs": 0.026058403, "lat_wgs": 51.57850772, "size_band": "< 3,013 ft2 (280m2)", "points": "POINT (540486.6579885565 188571.7497054919)" }, "geometry": { "type": "Point", "coordinates": [ -7.557212396852149, 49.767268978499885 ] } },
{ "type": "Feature", "id": 174, "properties": { "OBJECTID": 174, "FID": 173, "id": 1010004852, "retailer": "Tesco", "store_name": "Tesco High Road Leytonstone Express", "postcode": "E11 4PB", "long_wgs": 0.008040421, "lat_wgs": 51.56081892, "size_band": "< 3,013 ft2 (280m2)", "points": "POINT (539292.2879883384 186570.270327781)" }, "geometry": { "type": "Point", "coordinates": [ -7.557212627453857, 49.767268808083138 ] } },
{ "type": "Feature", "id": 175, "properties": { "OBJECTID": 175, "FID": 174, "id": 1010004853, "retailer": "Tesco", "store_name": "Tesco Whitechapel Express", "postcode": "E1 1DU", "long_wgs": -0.068692908, "lat_wgs": 51.51682625, "size_band": "< 3,013 ft2 (280m2)", "points": "POINT (534102.8179772412 181534.9002614978)" }, "geometry": { "type": "Point", "coordinates": [ -7.557213643714221, 49.767268363133283 ] } },
{ "type": "Feature", "id": 176, "properties": { "OBJECTID": 176, "FID": 175, "id": 1010004854, "retailer": "Tesco", "store_name": "Tesco Romford Manor Park Express", "postcode": "E12 5JY", "long_wgs": 0.054579515, "lat_wgs": 51.55337701, "size_band": "< 3,013 ft2 (280m2)", "points": "POINT (542541.2779811121 185832.3203248961)" }, "geometry": { "type": "Point", "coordinates": [ -7.557211977192415, 49.767268772760538 ] } },
{ "type": "Feature", "id": 177, "properties": { "OBJECTID": 177, "FID": 176, "id": 1010004856, "retailer": "Tesco", "store_name": "Tesco Green Gate Barking Road Express", "postcode": "E13 9EZ", "long_wgs": 0.029195976, "lat_wgs": 51.52634034, "size_band": "< 3,013 ft2 (280m2)", "points": "POINT (540864.9979952326 182776.6700029466)" }, "geometry": { "type": "Point", "coordinates": [ -7.557212300417138, 49.767268513275852 ] } },
{ "type": "Feature", "id": 178, "properties": { "OBJECTID": 178, "FID": 177, "id": 1010004857, "retailer": "Tesco", "store_name": "Tesco Frances Wharf Express", "postcode": "E14 7BY", "long_wgs": -0.028061381, "lat_wgs": 51.51457113, "size_band": "< 3,013 ft2 (280m2)", "points": "POINT (536928.5979783321 181359.3098899576)" }, "geometry": { "type": "Point", "coordinates": [ -7.557213078951603, 49.767268370503395 ] } },
{ "type": "Feature", "id": 179, "properties": { "OBJECTID": 179, "FID": 178, "id": 1010004862, "retailer": "Tesco", "store_name": "Tesco Poplar High Street Express", "postcode": "E14 9RL", "long_wgs": -0.009639014, "lat_wgs": 51.50861803, "size_band": "< 3,013 ft2 (280m2)", "points": "POINT (538224.8079889517 180731.9197954577)" }, "geometry": { "type": "Point", "coordinates": [ -7.55721281849018, 49.767268329027807 ] } },
{ "type": "Feature", "id": 180, "properties": { "OBJECTID": 180, "FID": 179, "id": 1010004864, "retailer": "Tesco", "store_name": "Tesco Mile End Road Lond Express", "postcode": "E1 4UJ", "long_wgs": -0.051978651, "lat_wgs": 51.52102159, "size_band": "< 3,013 ft2 (280m2)", "points": "POINT (535250.0379598507 182032.1706762983)" }, "geometry": { "type": "Point", "coordinates": [ -7.557213417219812, 49.7672684118359 ] } },
{ "type": "Feature", "id": 181, "properties": { "OBJECTID": 181, "FID": 180, "id": 1010004865, "retailer": "Tesco", "store_name": "Tesco Leytonstone Road Express", "postcode": "E15 1JA", "long_wgs": 0.005285619, "lat_wgs": 51.54798752, "size_band": "< 3,013 ft2 (280m2)", "points": "POINT (539140.4679832351 185138.1504454601)" }, "geometry": { "type": "Point", "coordinates": [ -7.557212653010899, 49.767268691637824 ] } },
{ "type": "Feature", "id": 182, "properties": { "OBJECTID": 182, "FID": 181, "id": 1010004868, "retailer": "Tesco", "store_name": "Tesco London Royal Victoria Dock Express", "postcode": "E16 1BL", "long_wgs": 0.019212464, "lat_wgs": 51.50834299, "size_band": "< 3,013 ft2 (280m2)", "points": "POINT (540227.7179938175 180756.1800371486)" }, "geometry": { "type": "Point", "coordinates": [ -7.557212420144963, 49.767268345493285 ] } },
{ "type": "Feature", "id": 183, "properties": { "OBJECTID": 183, "FID": 182, "id": 1010004869, "retailer": "Tesco", "store_name": "Tesco Shoreditch Express", "postcode": "E1 6HP", "long_wgs": -0.077581526, "lat_wgs": 51.52447091, "size_band": "< 3,013 ft2 (280m2)", "points": "POINT (533463.7880035418 182368.7702571704)" }, "geometry": { "type": "Point", "coordinates": [ -7.557213774623923, 49.767268426144149 ] } },
{ "type": "Feature", "id": 184, "properties": { "OBJECTID": 184, "FID": 183, "id": 1010004870, "retailer": "Tesco", "store_name": "Tesco Shoreditch Commercial Street Express", "postcode": "E1 6NF", "long_wgs": -0.074397316, "lat_wgs": 51.52052921, "size_band": "< 3,013 ft2 (280m2)", "points": "POINT (533696.2080152314 181936.2499943376)" }, "geometry": { "type": "Point", "coordinates": [ -7.557213726290994, 49.767268392464743 ] } },
{ "type": "Feature", "id": 185, "properties": { "OBJECTID": 185, "FID": 184, "id": 1010004871, "retailer": "Tesco", "store_name": "Tesco Wood Street Express", "postcode": "E17 3HT", "long_wgs": -0.005019991, "lat_wgs": 51.59123404, "size_band": "< 3,013 ft2 (280m2)", "points": "POINT (538294.7480000053 189927.7396621817)" }, "geometry": { "type": "Point", "coordinates": [ -7.557212839715444, 49.767269071507677 ] } },
{ "type": "Feature", "id": 186, "properties": { "OBJECTID": 186, "FID": 185, "id": 1010004872, "retailer": "Tesco", "store_name": "Tesco Walthamstow Forest Road Express", "postcode": "E17 4NE", "long_wgs": -0.016576457, "lat_wgs": 51.59017771, "size_band": "< 3,013 ft2 (280m2)", "points": "POINT (537497.4580223435 189788.4896527412)" }, "geometry": { "type": "Point", "coordinates": [ -7.557212997627282, 49.767269054908716 ] } },
{ "type": "Feature", "id": 187, "properties": { "OBJECTID": 187, "FID": 186, "id": 1010004877, "retailer": "Tesco", "store_name": "Tesco St Katharines Way Express", "postcode": "E1W 1LE", "long_wgs": -0.073831837, "lat_wgs": 51.50709544, "size_band": "< 3,013 ft2 (280m2)", "points": "POINT (533774.7580062132 180443.4103682463)" }, "geometry": { "type": "Point", "coordinates": [ -7.557213704241545, 49.76726827290922 ] } },
{ "type": "Feature", "id": 188, "properties": { "OBJECTID": 188, "FID": 187, "id": 1010002070, "retailer": "Marks and Spencer", "store_name": "M&S Green Park SF", "postcode": "W1J 8AQ", "long_wgs": -0.142843697, "lat_wgs": 51.50713322, "size_band": "3,013 < 15,069 ft2 (280 < 1,400 m2)", "points": "POINT (528985.5380063313 180323.8296800568)" }, "geometry": { "type": "Point", "coordinates": [ -7.557214657872411, 49.767268227026527 ] } },
{ "type": "Feature", "id": 189, "properties": { "OBJECTID": 189, "FID": 188, "id": 1010003950, "retailer": "Sainsburys", "store_name": "Sainsburys Mayfair", "postcode": "W1J 8LT", "long_wgs": -0.143443497, "lat_wgs": 51.50805366, "size_band": "3,013 < 15,069 ft2 (280 < 1,400 m2)", "points": "POINT (528941.3179918681 180425.1299486989)" }, "geometry": { "type": "Point", "coordinates": [ -7.557214667088828, 49.767268234684195 ] } },
{ "type": "Feature", "id": 190, "properties": { "OBJECTID": 190, "FID": 189, "id": 1010004883, "retailer": "Tesco", "store_name": "Tesco Chingford Express", "postcode": "E4 7BE", "long_wgs": 0.004882788, "lat_wgs": 51.63198731, "size_band": "< 3,013 ft2 (280m2)", "points": "POINT (538856.347949733 194478.4004722639)" }, "geometry": { "type": "Point", "coordinates": [ -7.557212744777143, 49.767269443325411 ] } },
{ "type": "Feature", "id": 191, "properties": { "OBJECTID": 191, "FID": 190, "id": 1010004888, "retailer": "Tesco", "store_name": "Tesco London Upton Park Express", "postcode": "E6 1PU", "long_wgs": 0.039785754, "lat_wgs": 51.53033314, "size_band": "< 3,013 ft2 (280m2)", "points": "POINT (541587.1779575831 183241.1005785869)" }, "geometry": { "type": "Point", "coordinates": [ -7.557212158023897, 49.767268556131803 ] } },
{ "type": "Feature", "id": 192, "properties": { "OBJECTID": 192, "FID": 191, "id": 1010004889, "retailer": "Tesco", "store_name": "Tesco East Ham High Street Express", "postcode": "E6 3PA", "long_wgs": 0.057014709, "lat_wgs": 51.52590909, "size_band": "< 3,013 ft2 (280m2)", "points": "POINT (542795.9880010439 182782.6002100942)" }, "geometry": { "type": "Point", "coordinates": [ -7.557211915789995, 49.767268528181177 ] } },
{ "type": "Feature", "id": 193, "properties": { "OBJECTID": 193, "FID": 192, "id": 1010004891, "retailer": "Tesco", "store_name": "Tesco East Ham Katherine Road Express", "postcode": "E7 8LT", "long_wgs": 0.038851571, "lat_wgs": 51.5407925, "size_band": "< 3,013 ft2 (280m2)", "points": "POINT (541489.9680219376 184402.3900170306)" }, "geometry": { "type": "Point", "coordinates": [ -7.557212181242305, 49.767268649527544 ] } },
{ "type": "Feature", "id": 194, "properties": { "OBJECTID": 194, "FID": 193, "id": 1010004894, "retailer": "Tesco", "store_name": "Tesco Dalston Junction Express", "postcode": "E8 4AH", "long_wgs": -0.07618698, "lat_wgs": 51.54545006, "size_band": "< 3,013 ft2 (280m2)", "points": "POINT (533499.1779478651 184704.2601926599)" }, "geometry": { "type": "Point", "coordinates": [ -7.557213776731725, 49.767268614168316 ] } },
{ "type": "Feature", "id": 195, "properties": { "OBJECTID": 195, "FID": 194, "id": 1010004895, "retailer": "Tesco", "store_name": "Tesco Hackney Express", "postcode": "E8 4DN", "long_wgs": -0.076371676, "lat_wgs": 51.53831445, "size_band": "< 3,013 ft2 (280m2)", "points": "POINT (533507.2379504171 183910.4203026452)" }, "geometry": { "type": "Point", "coordinates": [ -7.557213770824632, 49.767268550543825 ] } },
{ "type": "Feature", "id": 196, "properties": { "OBJECTID": 196, "FID": 195, "id": 1010004896, "retailer": "Tesco", "store_name": "Tesco Holborn Viaduct Express", "postcode": "EC1A 2AT", "long_wgs": -0.104382103, "lat_wgs": 51.51681758, "size_band": "< 3,013 ft2 (280m2)", "points": "POINT (531626.708023147 181469.1896891304)" }, "geometry": { "type": "Point", "coordinates": [ -7.557214137114531, 49.767268339393979 ] } },
{ "type": "Feature", "id": 197, "properties": { "OBJECTID": 197, "FID": 196, "id": 1010004898, "retailer": "Tesco", "store_name": "Tesco London Smithfield Express", "postcode": "EC1A 9LR", "long_wgs": -0.102734374, "lat_wgs": 51.51815313, "size_band": "< 3,013 ft2 (280m2)", "points": "POINT (531737.177998399 181620.6698263487)" }, "geometry": { "type": "Point", "coordinates": [ -7.557214114953917, 49.7672683521618 ] } },
{ "type": "Feature", "id": 198, "properties": { "OBJECTID": 198, "FID": 197, "id": 1010004899, "retailer": "Tesco", "store_name": "Tesco Farringdon Road London Express", "postcode": "EC1M 3JB", "long_wgs": -0.10613072, "lat_wgs": 51.52020176, "size_band": "< 3,013 ft2 (280m2)", "points": "POINT (531495.6479695801 181842.3804214493)" }, "geometry": { "type": "Point", "coordinates": [ -7.557214164100374, 49.767268368699746 ] } },
{ "type": "Feature", "id": 199, "properties": { "OBJECTID": 199, "FID": 198, "id": 1010004902, "retailer": "Tesco", "store_name": "Tesco City Road Express", "postcode": "EC1Y 1AG", "long_wgs": -0.086873491, "lat_wgs": 51.52278116, "size_band": "< 3,013 ft2 (280m2)", "points": "POINT (532824.1280036031 182163.9706059639)" }, "geometry": { "type": "Point", "coordinates": [ -7.557213900029418, 49.767268404808341 ] } },
{ "type": "Feature", "id": 200, "properties": { "OBJECTID": 200, "FID": 199, "id": 1010004905, "retailer": "Tesco", "store_name": "Tesco Cheapside London Express", "postcode": "EC2V 6BJ", "long_wgs": -0.096956195, "lat_wgs": 51.51532183, "size_band": "< 3,013 ft2 (280m2)", "points": "POINT (532146.247971518 181316.2299558172)" }, "geometry": { "type": "Point", "coordinates": [ -7.557214031919037, 49.767268330953478 ] } },
{ "type": "Feature", "id": 201, "properties": { "OBJECTID": 201, "FID": 200, "id": 1010004928, "retailer": "Tesco", "store_name": "Tesco Enfield Lock Express", "postcode": "EN3 6GS", "long_wgs": -0.016481075, "lat_wgs": 51.66878769, "size_band": "< 3,013 ft2 (280m2)", "points": "POINT (537266.7379529106 198530.4003450575)" }, "geometry": { "type": "Point", "coordinates": [ -7.55721307832136, 49.767269758522403 ] } },
{ "type": "Feature", "id": 202, "properties": { "OBJECTID": 202, "FID": 201, "id": 1010004929, "retailer": "Tesco", "store_name": "Tesco Barnet Greenhill Express", "postcode": "EN5 1ES", "long_wgs": -0.186912185, "lat_wgs": 51.64666964, "size_band": "< 3,013 ft2 (280m2)", "points": "POINT (525542.5979791032 195764.3602560456)" }, "geometry": { "type": "Point", "coordinates": [ -7.557215410686244, 49.767269447376691 ] } },
{ "type": "Feature", "id": 203, "properties": { "OBJECTID": 203, "FID": 202, "id": 1010004930, "retailer": "Tesco", "store_name": "Tesco High Street Barnet Express", "postcode": "EN5 5SJ", "long_wgs": -0.200008018, "lat_wgs": 51.65321254, "size_band": "< 3,013 ft2 (280m2)", "points": "POINT (524618.6479891934 196469.5696344353)" }, "geometry": { "type": "Point", "coordinates": [ -7.557215598411072, 49.767269496852521 ] } },
{ "type": "Feature", "id": 204, "properties": { "OBJECTID": 204, "FID": 203, "id": 1010005023, "retailer": "Tesco", "store_name": "Tesco Wembley Tube Station Express", "postcode": "HA0 3NJ", "long_wgs": -0.305324329, "lat_wgs": 51.5629652, "size_band": "< 3,013 ft2 (280m2)", "points": "POINT (517566.1479792263 186259.1097921751)" }, "geometry": { "type": "Point", "coordinates": [ -7.557216961028875, 49.767268618481459 ] } },
{ "type": "Feature", "id": 205, "properties": { "OBJECTID": 205, "FID": 204, "id": 1010005024, "retailer": "Tesco", "store_name": "Tesco Harrow Greenhill Way Express", "postcode": "HA1 2EA", "long_wgs": -0.333481007, "lat_wgs": 51.58167076, "size_band": "< 3,013 ft2 (280m2)", "points": "POINT (515567.1379452828 188294.4604853032)" }, "geometry": { "type": "Point", "coordinates": [ -7.557217370074548, 49.76726876802374 ] } },
{ "type": "Feature", "id": 206, "properties": { "OBJECTID": 206, "FID": 205, "id": 1010005026, "retailer": "Tesco", "store_name": "Tesco Harrow Shaftesbury Express", "postcode": "HA2 0AT", "long_wgs": -0.353621945, "lat_wgs": 51.57174322, "size_band": "< 3,013 ft2 (280m2)", "points": "POINT (514196.548005454 187158.8299504611)" }, "geometry": { "type": "Point", "coordinates": [ -7.557217637604939, 49.767268665139639 ] } },
{ "type": "Feature", "id": 207, "properties": { "OBJECTID": 207, "FID": 206, "id": 1010005027, "retailer": "Tesco", "store_name": "Tesco Harrow Pinner Road Express", "postcode": "HA2 6EH", "long_wgs": -0.363142361, "lat_wgs": 51.58823792, "size_band": "< 3,013 ft2 (280m2)", "points": "POINT (513495.7279879577 188978.3597611669)" }, "geometry": { "type": "Point", "coordinates": [ -7.557217785841549, 49.767268806527611 ] } },
{ "type": "Feature", "id": 208, "properties": { "OBJECTID": 208, "FID": 207, "id": 1010005028, "retailer": "Tesco", "store_name": "Tesco Rayners Lane Express", "postcode": "HA2 9UE", "long_wgs": -0.370772578, "lat_wgs": 51.57233363, "size_band": "< 3,013 ft2 (280m2)", "points": "POINT (513006.5579526984 187197.8704995142)" }, "geometry": { "type": "Point", "coordinates": [ -7.557217874555526, 49.767268659139795 ] } },
{ "type": "Feature", "id": 209, "properties": { "OBJECTID": 209, "FID": 208, "id": 1010005030, "retailer": "Tesco", "store_name": "Tesco Ruislip Field End Road Express", "postcode": "HA4 0QP", "long_wgs": -0.38117474, "lat_wgs": 51.56096472, "size_band": "< 3,013 ft2 (280m2)", "points": "POINT (512313.6879424145 185917.5506170121)" }, "geometry": { "type": "Point", "coordinates": [ -7.557218006587463, 49.767268550173291 ] } },
{ "type": "Feature", "id": 210, "properties": { "OBJECTID": 210, "FID": 209, "id": 1010005031, "retailer": "Tesco", "store_name": "Tesco Ruislip High Street Express", "postcode": "HA4 8LR", "long_wgs": -0.423994893, "lat_wgs": 51.57358241, "size_band": "< 3,013 ft2 (280m2)", "points": "POINT (509315.3279299525 187255.9206822623)" }, "geometry": { "type": "Point", "coordinates": [ -7.557218612535453, 49.767268635334425 ] } },
{ "type": "Feature", "id": 211, "properties": { "OBJECTID": 211, "FID": 210, "id": 1010005032, "retailer": "Tesco", "store_name": "Tesco Ruislip Park Way Express", "postcode": "HA4 8NR", "long_wgs": -0.412772232, "lat_wgs": 51.5742106, "size_band": "< 3,013 ft2 (280m2)", "points": "POINT (510091.5079791088 187342.6000538063)" }, "geometry": { "type": "Point", "coordinates": [ -7.557218456977101, 49.767268648219662 ] } },
{ "type": "Feature", "id": 212, "properties": { "OBJECTID": 212, "FID": 211, "id": 1010005033, "retailer": "Tesco", "store_name": "Tesco Eastcote Field End Road Express", "postcode": "HA5 1QW", "long_wgs": -0.39906048, "lat_wgs": 51.57871574, "size_band": "< 3,013 ft2 (280m2)", "points": "POINT (511030.7079837868 187864.3204153188)" }, "geometry": { "type": "Point", "coordinates": [ -7.5572182722529, 49.76726869761292 ] } },
{ "type": "Feature", "id": 213, "properties": { "OBJECTID": 213, "FID": 212, "id": 1010005035, "retailer": "Tesco", "store_name": "Tesco Edgware Glengall Road Express", "postcode": "HA8 8TE", "long_wgs": -0.27035315, "lat_wgs": 51.62653667, "size_band": "< 3,013 ft2 (280m2)", "points": "POINT (519822.8079718736 193385.4397004913)" }, "geometry": { "type": "Point", "coordinates": [ -7.557216542597557, 49.767269211091559 ] } },
{ "type": "Feature", "id": 214, "properties": { "OBJECTID": 214, "FID": 213, "id": 1010005037, "retailer": "Tesco", "store_name": "Tesco Edgware Hale Lane Express", "postcode": "HA8 8NP", "long_wgs": -0.275066471, "lat_wgs": 51.61634465, "size_band": "< 3,013 ft2 (280m2)", "points": "POINT (519523.3279915166 192244.3000081083)" }, "geometry": { "type": "Point", "coordinates": [ -7.557216597083262, 49.767269116657566 ] } },
{ "type": "Feature", "id": 215, "properties": { "OBJECTID": 215, "FID": 214, "id": 1010005040, "retailer": "Tesco", "store_name": "Tesco Preston Road Wembley Express", "postcode": "HA9 8NF", "long_wgs": -0.295209739, "lat_wgs": 51.57082477, "size_band": "< 3,013 ft2 (280m2)", "points": "POINT (518246.8380048969 187149.4397161298)" }, "geometry": { "type": "Point", "coordinates": [ -7.557216829549899, 49.76726869591706 ] } },
{ "type": "Feature", "id": 216, "properties": { "OBJECTID": 216, "FID": 215, "id": 1010005072, "retailer": "Tesco", "store_name": "Tesco Ilford Cranbrook Road Express", "postcode": "IG1 4NH", "long_wgs": 0.069637116, "lat_wgs": 51.56093203, "size_band": "< 3,013 ft2 (280m2)", "points": "POINT (543561.3479614807 186701.880264597)" }, "geometry": { "type": "Point", "coordinates": [ -7.557211776199105, 49.767268849940244 ] } },
{ "type": "Feature", "id": 217, "properties": { "OBJECTID": 217, "FID": 216, "id": 1010005076, "retailer": "Tesco", "store_name": "Tesco Woodford Green Express", "postcode": "IG8 9FB", "long_wgs": 0.01978606, "lat_wgs": 51.59995133, "size_band": "< 3,013 ft2 (280m2)", "points": "POINT (539986.1879649521 190944.3104077611)" }, "geometry": { "type": "Point", "coordinates": [ -7.557212505892943, 49.767269165879732 ] } },
{ "type": "Feature", "id": 218, "properties": { "OBJECTID": 218, "FID": 217, "id": 1010005096, "retailer": "Tesco", "store_name": "Tesco Norbiton Express", "postcode": "KT1 3RT", "long_wgs": -0.27432142, "lat_wgs": 51.40873437, "size_band": "< 3,013 ft2 (280m2)", "points": "POINT (520119.2779998768 169158.109792449)" }, "geometry": { "type": "Point", "coordinates": [ -7.557216374277685, 49.767267258723535 ] } },
{ "type": "Feature", "id": 219, "properties": { "OBJECTID": 219, "FID": 218, "id": 1010005102, "retailer": "Tesco", "store_name": "Tesco Kingston Thames Express", "postcode": "KT2 5EB", "long_wgs": -0.300506355, "lat_wgs": 51.41247687, "size_band": "< 3,013 ft2 (280m2)", "points": "POINT (518288.5579784505 169531.7401718946)" }, "geometry": { "type": "Point", "coordinates": [ -7.557216740282237, 49.767267275318353 ] } },
{ "type": "Feature", "id": 220, "properties": { "OBJECTID": 220, "FID": 219, "id": 1010005103, "retailer": "Tesco", "store_name": "Tesco New Malden High Street Express", "postcode": "KT3 4DQ", "long_wgs": -0.257218592, "lat_wgs": 51.40340492, "size_band": "< 3,013 ft2 (280m2)", "points": "POINT (521322.807962889 168593.6003832119)" }, "geometry": { "type": "Point", "coordinates": [ -7.557216132501878, 49.767267222649764 ] } },
{ "type": "Feature", "id": 221, "properties": { "OBJECTID": 221, "FID": 220, "id": 1010005267, "retailer": "Tesco", "store_name": "Tesco Bounds Green Road Express", "postcode": "N11 2PP", "long_wgs": -0.122813243, "lat_wgs": 51.60544777, "size_band": "< 3,013 ft2 (280m2)", "points": "POINT (530094.9579461671 191292.2805969249)" }, "geometry": { "type": "Point", "coordinates": [ -7.557214482376633, 49.767269120290571 ] } },
{ "type": "Feature", "id": 222, "properties": { "OBJECTID": 222, "FID": 221, "id": 1010005271, "retailer": "Tesco", "store_name": "Tesco Osidge Hampden Square Express", "postcode": "N14 5JP", "long_wgs": -0.143257706, "lat_wgs": 51.63180052, "size_band": "< 3,013 ft2 (280m2)", "points": "POINT (528604.7979331801 194186.6903462175)" }, "geometry": { "type": "Point", "coordinates": [ -7.557214791423037, 49.76726934305352 ] } },
{ "type": "Feature", "id": 223, "properties": { "OBJECTID": 223, "FID": 222, "id": 1010005272, "retailer": "Tesco", "store_name": "Tesco Chaseside Southgate Express", "postcode": "N14 5PH", "long_wgs": -0.129260769, "lat_wgs": 51.63307258, "size_band": "< 3,013 ft2 (280m2)", "points": "POINT (529569.8479548098 194352.8600941169)" }, "geometry": { "type": "Point", "coordinates": [ -7.557214599267342, 49.76726936400042 ] } },
{ "type": "Feature", "id": 224, "properties": { "OBJECTID": 224, "FID": 223, "id": 1010005274, "retailer": "Tesco", "store_name": "Tesco Stoke Newington High Street Express", "postcode": "N16 8DR", "long_wgs": -0.074810439, "lat_wgs": 51.5582395, "size_band": "< 3,013 ft2 (280m2)", "points": "POINT (533557.1879991028 186129.0006108747)" }, "geometry": { "type": "Point", "coordinates": [ -7.55721377052371, 49.767268729682669 ] } },
{ "type": "Feature", "id": 225, "properties": { "OBJECTID": 225, "FID": 224, "id": 1010005276, "retailer": "Tesco", "store_name": "Tesco East Road Shoreditch Express", "postcode": "N1 6AA", "long_wgs": -0.086440747, "lat_wgs": 51.5299194, "size_band": "< 3,013 ft2 (280m2)", "points": "POINT (532833.3880030084 182958.5503305069)" }, "geometry": { "type": "Point", "coordinates": [ -7.557213901790282, 49.767268468632331 ] } },
{ "type": "Feature", "id": 226, "properties": { "OBJECTID": 226, "FID": 225, "id": 1010005278, "retailer": "Tesco", "store_name": "Tesco Edmonton Express", "postcode": "N18 2XF", "long_wgs": -0.065116779, "lat_wgs": 51.61293885, "size_band": "< 3,013 ft2 (280m2)", "points": "POINT (534068.1379769503 192229.5105346839)" }, "geometry": { "type": "Point", "coordinates": [ -7.557213692619892, 49.767269225797833 ] } },
{ "type": "Feature", "id": 227, "properties": { "OBJECTID": 227, "FID": 226, "id": 1010005281, "retailer": "Tesco", "store_name": "Tesco London Whetstone Express", "postcode": "N20 0BU", "long_wgs": -0.160074026, "lat_wgs": 51.62588241, "size_band": "< 3,013 ft2 (280m2)", "points": "POINT (527457.5779554374 193499.1200246528)" }, "geometry": { "type": "Point", "coordinates": [ -7.557215017554225, 49.767269279066291 ] } },
{ "type": "Feature", "id": 228, "properties": { "OBJECTID": 228, "FID": 227, "id": 1010005282, "retailer": "Tesco", "store_name": "Tesco Wood Green Lordship London Express", "postcode": "N22 5JH", "long_wgs": -0.102916867, "lat_wgs": 51.59908766, "size_band": "< 3,013 ft2 (280m2)", "points": "POINT (531491.0580223883 190620.5796503089)" }, "geometry": { "type": "Point", "coordinates": [ -7.557214200876103, 49.76726907712689 ] } },
{ "type": "Feature", "id": 229, "properties": { "OBJECTID": 229, "FID": 228, "id": 1010005283, "retailer": "Tesco", "store_name": "Tesco High Road Wood Green Express", "postcode": "N22 6BS", "long_wgs": -0.103984319, "lat_wgs": 51.59056003, "size_band": "< 3,013 ft2 (280m2)", "points": "POINT (531441.7279843788 189670.350132203)" }, "geometry": { "type": "Point", "coordinates": [ -7.557214207249785, 49.767268999409708 ] } },
{ "type": "Feature", "id": 230, "properties": { "OBJECTID": 230, "FID": 229, "id": 1010005285, "retailer": "Tesco", "store_name": "Tesco Seven Sisters Express", "postcode": "N4 2HY", "long_wgs": -0.10511705, "lat_wgs": 51.56420893, "size_band": "< 3,013 ft2 (280m2)", "points": "POINT (531439.2079381903 186737.9605130867)" }, "geometry": { "type": "Point", "coordinates": [ -7.5572141954519, 49.767268763245141 ] } },
{ "type": "Feature", "id": 231, "properties": { "OBJECTID": 231, "FID": 230, "id": 1010005286, "retailer": "Tesco", "store_name": "Tesco Drayton Park Express", "postcode": "N5 1AN", "long_wgs": -0.10546528, "lat_wgs": 51.55382409, "size_band": "< 3,013 ft2 (280m2)", "points": "POINT (531444.9879836473 185582.499688008)" }, "geometry": { "type": "Point", "coordinates": [ -7.557214188921047, 49.767268669946652 ] } },
{ "type": "Feature", "id": 232, "properties": { "OBJECTID": 232, "FID": 231, "id": 1010005287, "retailer": "Tesco", "store_name": "Tesco Highgate Express", "postcode": "N6 5JG", "long_wgs": -0.146532508, "lat_wgs": 51.57066767, "size_band": "< 3,013 ft2 (280m2)", "points": "POINT (528550.5479765582 187382.6397059288)" },